EnhetNavn;Kommune;Engelsk;Lesing;Regning;lat;lng
Arendal International School (Ais);Arendal;58;50;49;58.432075;8.74147
Asdal skole;Arendal;46;44;45;58.435024;8.694807
Birkenlund skole;Arendal;51;48;47;58.470299;8.792936
Hisøy skole 1-10 Skoler;Arendal;53;53;51;58.4449844;8.7652587
Moltemyr skole;Arendal;51;49;45;58.475933;8.764561
Nedenes skole;Arendal;51;50;52;58.4131671;8.7094974
Roligheden skole Barne-/Ungdomstrinnet;Arendal;50;48;47;58.455447;8.803997
St. Franciskus skole;Arendal;54;50;52;58.4577927;8.7659565
Stiftelsen steinerskolen i Arendal;Arendal;52;52;52;58.4761148;8.7559636
Stinta skole barne- og Ungdomstrinnet;Arendal;50;46;48;58.462557;8.7579788
Stuenes skole barne- og Ungdomstrinn;Arendal;50;45;46;58.492494;8.847901
Engesland skole;Birkenes;*;*;*;58.52942;8.11796
Valstrand skole;Birkenes;*;*;*;58.322797;8.239794
Bygland skule;Bygland;47;*;*;58.831722;7.798301
Bykle barne- og ungdomsskule;Bykle;*;*;*;59.3567449;7.3586337
Evje ungdomsskule;Evje og Hornnes;50;47;51;58.590371;7.81989
Farsund ungdomsskole;Farsund;52;50;50;58.0919802;6.7947441
Lista ungdomsskole;Farsund;50;48;49;58.0904614;6.6882549
Flekkefjord ungdomsskole;Flekkefjord;49;48;49;58.303438;6.667718
Froland ungdomsskole;Froland;50;47;49;58.51306;8.629707
Abel skole;Gjerstad;45;45;46;58.839058;9.094655
Drottningborg ungdomsskole AS;Grimstad;49;50;51;58.33732680000001;8.5812467
Fevik skole;Grimstad;50;47;48;58.381716;8.679816
Grimstad ungdomsskole;Grimstad;49;48;48;58.345837;8.59004
Holviga ungdomsskole;Grimstad;52;49;51;58.324773;8.565885
Iveland skole;Iveland;49;45;46;58.456334;7.919944
Finsland skole;Kristiansand;44;46;43;58.2736055;7.585993
Fiskå skole;Kristiansand;50;47;48;58.1260587;7.9543887
Grim skole;Kristiansand;50;47;47;58.1482333;7.9705422
Haumyrheia skole;Kristiansand;50;51;48;58.1579323;8.0666273
Havlimyra skole;Kristiansand;51;50;52;58.1912295;8.0334397
Hellemyr skole Kompetanse;Kristiansand;;;;58.1473505;7.9367722
Holte skole;Kristiansand;51;50;51;58.128196;8.095298
Karuss skole;Kristiansand;50;45;47;58.1292669;7.9499914
Kristiansand Internasjonale skole;Kristiansand;57;48;49;58.156184;8.018051
Krossen skole - Kompetanse;Kristiansand;;;;58.1539482;7.9535881
Lindebøskauen skole;Kristiansand;47;46;47;58.0882304;7.9996158
Møvig skole;Kristiansand;49;47;48;58.104393;7.972108
Oasen skole Birkelid AS;Kristiansand;50;47;47;58.1253102;7.844828299999999
Oasen skole Strømme AS grunnskole;Kristiansand;52;51;50;58.1548321;8.0760794
Oasen skole Vågsbygd AS;Kristiansand;*;*;*;58.11919280000001;7.9475772
Oddemarka skole;Kristiansand;51;50;51;58.1570083;8.01482
Samfundets skole Sentrum;Kristiansand;52;55;56;58.149636;7.993728
Songdalen skole;Kristiansand;48;45;43;58.155498;7.8305056
Stiftelsen steinerskolen i Kristiansand;Kristiansand;*;*;*;58.1591762;8.0152391
Tangvall skole;Kristiansand;50;48;47;58.0966803;7.8102969
Tinntjønn skole;Kristiansand;48;48;48;58.1017511;7.766182
Torridal skole;Kristiansand;49;46;46;58.2044254;7.927384
Ve skole;Kristiansand;50;46;50;58.207817;8.110378
Vigvoll skole;Kristiansand;51;48;48;58.1757395;8.0897579
Kvinesdal ungdomsskole;Kvinesdal;*;*;*;58.312611;6.962985
Kvinlog skule;Kvinesdal;*;*;*;58.5208294;6.9324785
Lillesand kommune - Høvåg skole;Lillesand;49;49;52;58.1593707;8.217202499999999
Lillesand kommune - Lillesand ungdomsskole;Lillesand;50;46;48;58.257072;8.3617219
Blomdalen ungdomsskole;Lindesnes;48;47;49;58.0255815;7.443085
Oasen skole Mandal AS;Lindesnes;47;45;43;58.0334803;7.454668700000001
Vassmyra ungdomsskole;Lindesnes;51;49;49;58.027665;7.49768
Vigeland ungdomsskole;Lindesnes;48;46;47;58.080665;7.314025
Øyslebø ungdomsskole;Lindesnes;47;46;49;58.1716737;7.5545706
Byremo ungdomsskole;Lyngdal;47;45;49;58.424501;7.405312
Lyngdal ungdomsskole;Lyngdal;47;44;47;58.1358091;7.0665804
Stiftelsen Lyngdal Kristne grunnskole;Lyngdal;52;50;53;58.129238;7.065723999999999
Risør ungdomsskole;Risør;49;49;46;58.714562;9.21912
Sinnes skule;Sirdal;*;*;*;58.913905;6.884116
Tonstad skule;Sirdal;*;*;*;58.671944;6.721219
Lyngmyr skole;Tvedestrand;48;46;44;58.628779;8.93527
Valle skule;Valle;*;*;*;59.199743;7.532156
Vegårshei skule;Vegårshei;49;51;48;58.75259;8.861058
Oasen skole Vennesla AS;Vennesla;54;47;52;58.2777255;7.970207
Skarpengland skole;Vennesla;47;46;47;58.2946496;7.8526035
Vennesla ungdomsskole;Vennesla;49;47;47;58.2757885;7.9771211
Åmli skule;Åmli;49;47;49;58.772319;8.49638
Åseral barne- og ungdomsskule;Åseral;*;*;*;58.61885;7.420922
Akademiet ungdomsskole Asker AS;Asker;62;55;59;59.7691633;10.2523618
Borgen ungdomsskole;Asker;52;49;50;59.8265928;10.4194823
Holmen skole Grunnskole/Videregående skole;Asker;*;*;*;59.865819;10.486931
Hovedgården ungdomsskole;Asker;52;49;50;59.7848343;10.4366861
Landøya ungdomsskole;Asker;51;50;50;59.860315;10.4979949
Norges Toppidrettsgymnas ungdomsskole Asker AS;Asker;52;52;55;59.9254233;10.5909234
Risenga ungdomsskole;Asker;53;50;52;59.8255953;10.4410402
Slemmestad ungdomsskole;Asker;51;49;47;59.7777992;10.4786267
Solvang ungdomsskole;Asker;54;52;51;59.8399357;10.4244707
Spikkestad ungdomsskole;Asker;51;47;47;59.740071;10.350366
Steinerskolen i Asker skole;Asker;48;*;45;59.8613471;10.4950208
Steinerskolen i Hurum Sti;Asker;47;*;40;59.6330556;10.4958333
Stiftelsen Asker International School;Asker;61;48;54;59.8297074;10.4171605
Sætre ungdomsskole;Asker;49;48;47;59.6703561;10.5368909
Tofte ungdomsskole;Asker;*;*;*;59.5495895;10.5640329
Torstad ungdomsskole;Asker;56;55;54;59.8622334;10.4810047
Vollen ungdomsskole;Asker;54;51;50;59.800284;10.489696
Aurskog-Høland kommune - Aursmoen skole;Aurskog-Høland;53;50;48;59.92424249999999;11.4502345
Aurskog-Høland kommune - Bjørkelangen skole;Aurskog-Høland;50;48;49;59.8747487;11.559191
Aurskog-Høland kommune - Bråte skole;Aurskog-Høland;47;44;46;59.7211759;11.4531086
Bekkestua skole;Bærum;54;51;53;59.922891;10.588263
Bjørnegård skole;Bærum;52;51;53;59.8873891;10.4971798
Eineåsen skole;Bærum;51;48;48;59.9298138;10.4810727
Gjettum skole;Bærum;54;53;52;59.9071138;10.5317146
Hauger skole;Bærum;51;49;49;59.9103245;10.5062245
Hosletoppen skole;Bærum;53;54;52;59.9406028;10.5857283
Hundsund ungdomsskole;Bærum;54;52;52;59.8892031;10.6206117
Mølladammen ungdomsskole;Bærum;54;51;52;59.9498922;10.4980557
Norges Realfagsungdomsskole Sandvika AS;Bærum;65;63;68;59.89673920000001;10.5229357
Norges Toppidrettsgymnas ungdomsskole Bærum AS;Bærum;52;52;56;59.9254233;10.5909234
Oslo International School;Bærum;57;50;51;59.9196503;10.5832691
Ramstad skole;Bærum;54;51;52;59.906718;10.573971
Ringstabekk skole;Bærum;56;55;57;59.9183546;10.6009197
Steinerskolen i Bærum Grunnskoleundervisning;Bærum;52;52;51;59.930249;10.60661
Stiftelsen Bærum montessoriskole;Bærum;55;54;50;59.907659;10.5788424
Vøyenenga skole;Bærum;49;46;46;59.906992;10.476415
Østerås skole;Bærum;56;55;56;59.9387369;10.6070872
Feiring skole;Eidsvoll;*;*;*;60.4924065;11.1542598
Råholt ungdomsskole;Eidsvoll;51;46;48;60.2832209;11.1680261
Steinerskolen på Eidsvoll;Eidsvoll;*;*;*;60.286582;11.240897
Vilberg ungdomsskole;Eidsvoll;*;*;*;60.3345918;11.2599168
Kirkebygden barne- og ungdomsskole;Enebakk;50;47;46;59.7663725;11.1490756
Mjær ungdomsskole;Enebakk;50;46;46;59.7247133;11.0611319
Drøbak Montessori ungdomsskole AS;Frogn;53;53;50;59.67183619999999;10.6350769
Dyrløkkeåsen skole;Frogn;53;50;50;59.6674657;10.6556839
Seiersten ungdomsskole;Frogn;53;49;49;59.6682756;10.6382451
Stiftelsen Soon sjøskole;Frogn;;;;59.6758985;10.6070624
Gjerdrum ungdomsskole;Gjerdrum;52;49;49;60.0713415;11.0284311
Hurdal skole og kultursenter avd skole;Hurdal;*;*;*;60.43333430000001;11.0688343
Hurdal steinerskole;Hurdal;*;*;*;60.4085572;11.0510112
Jevnaker ungdomsskole;Jevnaker;49;45;46;60.239649;10.367355
Asak skole;Lillestrøm;51;47;51;59.9930604;11.108926
Bingsfoss ungdomsskole;Lillestrøm;52;48;45;59.9882686;11.2514635
Bråtejordet skole;Lillestrøm;50;46;47;59.9540216;10.9991492
Frogner skole;Lillestrøm;51;47;48;60.0254365;11.103104
Frydenlund skole og ressurssenter;Lillestrøm;;;;59.9507395;11.0139051
Kjeller skole;Lillestrøm;52;49;49;59.9742877;11.0399084
Oks friskole Sti;Lillestrøm;52;50;49;59.9814731;11.0146295
Sophie Radich skole;Lillestrøm;53;49;50;59.9668437;11.0376306
Stav skole;Lillestrøm;50;45;47;59.9639848;10.9992961
Tæruddalen skole;Lillestrøm;50;46;48;60.0129851;11.0181079
Østersund ungdomsskole;Lillestrøm;50;47;46;59.9208582;11.1673132
Harestua skole;Lunner;57;52;52;60.2110977;10.7130379
Lunner ungdomsskole;Lunner;49;46;45;60.2935013;10.6095654
Fjellsrud skole;Lørenskog;53;52;52;59.9365549;10.9766081
Hammer skole;Lørenskog;54;51;50;59.9234857;10.9826917
Kjenn skole;Lørenskog;52;51;50;59.9302549;10.9586744
Løkenåsen skole;Lørenskog;53;49;49;59.9227748;10.9665997
Lørenskog friskole;Lørenskog;54;53;53;59.931378;10.929107
Rudolf steinerskolen Lørenskog Sti;Lørenskog;52;50;48;59.9131554;10.9383158
Wang Romerike AS;Lørenskog;52;53;53;59.9466209;10.9519929
Nannestad ungdomsskole;Nannestad;50;47;47;60.2179712;11.0131186
Hoppensprett Akademiet Brårud AS;Nes;47;42;43;60.2088577;11.3323299
Romerike International School Sti;Nes;59;44;51;60.12736080000001;11.3380797
Runni ungdomsskole;Nes;50;46;46;60.128464;11.477604
Vormsund ungdomsskole;Nes;50;48;46;60.1587611;11.4279555
Alværn ungdomsskole;Nesodden;53;51;50;59.8212611;10.6329171
Bakkeløkka ungdomsskole;Nesodden;49;47;48;59.737204;10.602255
Rudolf steinerskolen stiftelsen avd Undervisning;Nesodden;46;54;49;59.80428189999999;10.6381967
Tangenåsen ungdomsskole;Nesodden;51;51;52;59.855385;10.662979
Hakadal ungdomsskole;Nittedal;53;48;48;60.1114011;10.8499531
Li skole;Nittedal;53;49;50;60.4645669;5.3512125
Nittedal ungdomsskole;Nittedal;53;52;51;60.0531749;10.8782673
Fløysbonn ungdomsskole;Nordre Follo;54;52;51;59.7961913;10.8142193
Flåtestad ungdomsskole;Nordre Follo;54;50;50;59.7708435;10.8032073
Follo barne- og ungdomsskole;Nordre Follo;;;;59.7659528;10.8440732
Haugjordet ungdomsskole;Nordre Follo;53;50;48;59.7643672;10.84455
Hellerasten ungdomsskole;Nordre Follo;53;50;50;59.8136433;10.8152139
Ingieråsen ungdomsskole;Nordre Follo;55;52;52;59.8105142;10.7937928
Kråkstad skole;Nordre Follo;53;49;49;59.6777853;10.8856734
Magasinparken ungdomsskole;Nordre Follo;54;51;51;59.7149602;10.8263664
Siggerud skole;Nordre Follo;50;48;47;59.7905422;10.8894795
Wang Ung Follo AS;Nordre Follo;53;52;52;59.799183;10.8235254
Marikollen ungdomsskole;Rælingen;51;47;47;59.9241206;11.0625124
Sandbekken ungdomsskole og oppvekstsenter;Rælingen;50;48;47;59.9335566;11.030821
Allergot ungdomsskole;Ullensaker;52;48;47;60.1392252;11.1781814
Gystadmarka ungdomsskole;Ullensaker;50;47;48;60.1510399;11.1896448
Hoppensprett Akademiet AS avd ungdomsskole;Ullensaker;49;48;48;60.070521;11.1313994
Nordby ungdomsskole;Ullensaker;49;45;44;60.149999;11.169513
Vesong ungdomsskole;Ullensaker;50;46;47;60.0703913;11.132029
Grevlingen skole;Vestby;50;48;47;59.5181769;10.7012636
Vestby ungdomsskole;Vestby;51;47;47;59.595838;10.7565944
Nordbytun ungdomsskole;Ås;*;*;49;59.725791;10.7639
Steinerskolen i Ås;Ås;*;*;;59.6865617;10.8116304
Ås ungdomsskole;Ås;52;52;50;59.6699583;10.7996889
Akademiet realfagsskole Drammen AS;Drammen;58;53;56;59.74860529999999;10.1719843
Akademiet ungdomsskole Drammen AS;Drammen;51;52;55;59.7691633;10.2523618
Børresen ungdomsskole;Drammen;52;49;50;59.7492941;10.1901068
Eknes ungdomsskole;Drammen;49;47;48;59.7596177;10.0080468
Galterud ungdomsskole;Drammen;50;46;46;59.7173375;10.2184238
Gulskogen skole;Drammen;54;49;48;59.73999;10.17048
Killingrud ungdomsskole;Drammen;51;47;49;59.7611658;10.0773221
Kjøsterud skole;Drammen;50;45;47;59.7566756;10.1310538
Marienlyst ungdomsskole;Drammen;53;49;49;59.7337153;10.2025616
Rosendal skole;Drammen;46;43;42;59.7501414;10.0259396
Svelvik ungdomsskole;Drammen;48;46;44;59.6055335;10.404165
Svensedammen ungdomsskole;Drammen;53;51;51;59.7149998;10.151131
Veiavangen ungdomsskole;Drammen;51;47;48;59.74766;9.9988538
Flesberg skole;Flesberg;53;50;50;59.8385947;9.5721763
Flå skole;Flå;*;*;*;63.196733;10.316501
Gol skule;Gol;49;46;46;60.7052273;8.9369401
Hemsedal skole;Hemsedal;49;46;49;60.862643;8.561334
Geilo barne- og ungdomsskole;Hol;50;47;52;60.53399;8.21917
Hole ungdomsskole;Hole;*;*;51;60.086243;10.283352
Tyrifjord barne- og ungdomsskole;Hole;*;*;54;60.068448;10.171658
Hvittingfoss barne- og ungdomsskole;Kongsberg;55;50;52;59.489087;10.00927
Skrim ungdomsskole;Kongsberg;49;48;49;59.626959;9.648856
Stiftelsen Kongsberg International School;Kongsberg;58;48;54;59.67596069999999;9.642636099999999
Tislegård ungdomsskole;Kongsberg;52;50;51;59.659071;9.656995
Vestsiden ungdomsskole;Kongsberg;50;46;48;59.668732;9.641777
Krødsherad skole;Krødsherad;54;50;56;60.1241455;9.7871805
Akademiet ungdomsskole Lier AS;Lier;53;50;48;59.7691633;10.2523618
Høvik skole;Lier;51;50;51;59.760162;10.2396001
Lierbyen skole;Lier;50;46;47;59.791915;10.258648
Sylling skole;Lier;53;50;48;59.89162;10.292531
Tranby skole;Lier;50;47;47;59.8107087;10.2680186
Nordre Modum ungdomsskole;Modum;48;47;46;59.9713553;9.9968694
Søndre Modum ungdomsskole;Modum;51;48;47;59.893745;9.93137
Nesbyen skole;Nesbyen;46;45;49;60.5680861;9.1027428
Rødberg skole;Nore og Uvdal;44;46;46;60.26882;8.944285
Discovery International School AS;Ringerike;*;*;*;60.2054315;10.3682193
Hallingby skole;Ringerike;*;47;*;60.2687919;10.1792931
Haugsbygd ungdomsskole;Ringerike;52;48;47;60.1756674;10.3231469
Hov ungdomsskole;Ringerike;50;50;49;60.182643;10.265927
Nes skole;Ringerike;*;*;*;60.565726;9.986816
Ringerike Montessori AS;Ringerike;54;49;43;60.13550770000001;10.1666881
Ringerike steinerskole Sti;Ringerike;*;*;*;60.20940689999999;10.3760064
Sokna skole;Ringerike;51;*;49;60.2426759;9.9310896
Steinsfjorden montessoriskole SA;Ringerike;*;*;*;60.1290624;10.3519346
Tyristrand skole;Ringerike;50;49;51;60.085273;10.102012
Veienmarka ungdomsskole;Ringerike;51;49;48;60.1713479;10.2270344
Veggli skole;Rollag;*;*;*;60.041426;9.150187
Sigdal ungdomsskole;Sigdal;48;47;45;60.04233;9.639341
Hokksund ungdomsskole;Øvre Eiker;50;46;47;59.7700097;9.907238
Skotselv skole;Øvre Eiker;51;49;48;59.8493134;9.8799913
Vestfossen ungdomsskole;Øvre Eiker;52;47;49;59.730474;9.867902
Ål ungdomsskule;Ål;48;48;49;60.627719;8.549843
Alta Kristne grunnskole SA;Alta;*;*;*;69.9677541;23.3515328
Alta ungdomsskole;Alta;51;47;48;69.9734016;23.2937491
Haldde montessoriskole SA;Alta;*;*;*;69.9313348;23.0178681
Rafsbotn skole;Alta;*;*;*;70.0187733;23.5296252
Sandfallet ungdomsskole;Alta;48;45;44;69.974312;23.3119131
Talvik skole;Alta;*;*;*;70.0419009;22.9433702
Tverrelvdalen skole;Alta;49;48;50;69.932999;23.432776
Berlevåg skole;Berlevåg;*;*;*;70.8610772;29.0918586
Båtsfjord skole;Båtsfjord;52;43;46;70.63308;29.717738
Deanu Sàmeskuvla;Deatnu - Tana;*;*;*;70.19649;28.1689365
Tanabru skole;Deatnu - Tana;*;*;*;70.197898;28.166543
Mehamn skole;Gamvik;*;*;*;71.03507;27.851265
Kautokeino skole;Guovdageaidnu - Kautokeino;*;*;*;69.013813;23.046197
Máze Skuvla/Masi skole Máze skole;Guovdageaidnu - Kautokeino;*;*;*;69.449084;23.672861
Breilia skole;Hammerfest - Hámmerfeasta;49;47;46;70.6664658;23.6998229
Fjordtun skole;Hammerfest - Hámmerfeasta;48;44;45;70.634536;23.6849732
Forsøl skole;Hammerfest - Hámmerfeasta;*;*;*;70.7214996;23.7964221
Kvalsund skole;Hammerfest - Hámmerfeasta;*;*;*;70.4985035;23.9736593
Breivikbotn skole;Hasvik;*;*;*;70.591564;22.302993
Karasjok grunnskole;Kárášjohka - Karasjok;51;*;47;69.4693965;25.5146275
Kjøllefjord skole;Lebesby;*;*;*;70.9449785;27.3576028
Lebesby oppvekstsenter Avdeling skole;Lebesby;*;*;*;70.5739033;26.9993206
Høgtun skole;Loppa;*;*;*;70.250454;22.352506
Havøysund skole;Måsøy;*;*;*;70.9988847;24.6573876
Honningsvåg skole;Nordkapp;51;44;44;70.97842;25.977887
Billefjord Sjøsamiske oppvekstsenter Avdeling skole;Porsanger - Porsángu - Porsanki;*;*;*;70.31648009999999;25.047947
Børselv skole;Porsanger - Porsángu - Porsanki;*;*;*;70.315217;25.566818
Lakselv ungdomsskole;Porsanger - Porsángu - Porsanki;46;49;44;70.049284;24.9682
Kirkenes skole;Sør-Varanger;50;47;49;69.723396;30.0582691
Pasvik skole;Sør-Varanger;*;*;*;69.454864;30.054626
Sandnes og Bjørnevatn skole;Sør-Varanger;*;*;*;69.6687274;29.972181
Unjargga Oahppogaldu Nesseby oppvekstsenter avd skole;Unjárga - Nesseby;*;*;*;70.17449599999999;28.5536708
Vadsø kommune Vestre Jakobselv oppvekstsenter avd skole;Vadsø;*;*;*;70.11798089999999;29.3359618
Vadsø ungdomsskole og voksenopplæring avd skole;Vadsø;*;*;*;70.0803919;29.7455966
Vardø kommune grunnskole;Vardø;51;48;49;70.3705875;31.1094377
Alvdal ungdomsskole;Alvdal;45;44;47;62.103169;10.638282
Dovre ungdomsskole;Dovre;49;49;46;62.0749603;9.1201741
Eidskog ungdomsskole;Eidskog;48;46;43;59.9841115;12.1258705
Elverum ungdomsskole;Elverum;50;48;48;60.8871822;11.557876
Engerdal barne- og ungdomsskole;Engerdal;*;*;*;61.8190077;11.9207648
Etnedal skule;Etnedal;50;48;50;60.9260411;9.6335265
Folldal skole;Folldal;44;45;46;62.1320915;9.9845768
Gausdal ungdomsskole;Gausdal;49;48;46;61.1994696;10.1453027
Biri ungdomsskole;Gjøvik;48;47;46;60.9531026;10.6068975
Bjørnsveen ungdomsskole;Gjøvik;51;50;48;60.81272;10.6728557
Kopperud skole;Gjøvik;51;50;51;60.769142;10.6759288
Snertingdal skole;Gjøvik;*;*;*;60.8752516;10.4038092
Steinerskolen Gjøvik-Toten;Gjøvik;*;*;*;60.7882821;10.6996869
Vardal ungdomsskole;Gjøvik;47;45;45;60.7880779;10.6482502
Bjoneroa skole;Gran;*;*;*;60.5162846;10.2958473
Brandbu ungdomsskole;Gran;50;49;46;60.4195066;10.5129988
Gran ungdomsskole;Gran;*;*;*;60.3563418;10.5818674
Grue barne- og ungdomsskole;Grue;46;46;42;60.450287;12.054574
Ajer ungdomsskole;Hamar;52;51;51;60.8056769;11.058086
Børstad ungdomsskole;Hamar;54;51;50;60.8044151;11.0873997
Ener ungdomsskole;Hamar;49;49;50;60.806769;11.12913
Hamar Montessori skole Sti;Hamar;49;43;42;60.8207101;11.0477278
Wang Hamar AS;Hamar;49;49;51;60.801689;11.0378088
Austmarka barne- og ungdomsskole;Kongsvinger;*;*;*;60.1007697;12.323332
Kongsvinger montessoriskole SA;Kongsvinger;*;*;*;60.17325930000001;12.0184654
Kongsvinger ungdomsskole;Kongsvinger;*;*;*;60.191262;12.0142557
Norges Toppidrettsgymnas ungdomsskole Kongsvinger AS;Kongsvinger;*;*;*;60.19151;12.0143512
Lesja skule;Lesja;50;48;46;62.1171537;8.8543079
Engesvea barne- og ungdomsskole;Lillehammer;*;*;*;61.0948726;10.4834214
Hammartun skole;Lillehammer;52;47;44;61.1125741;10.4630517
Norges Toppidrettsgymnas ungdomsskole Lillehammer AS;Lillehammer;52;55;56;61.1249118;10.472548
Smestad ungdomsskole;Lillehammer;49;49;47;61.1347143;10.4466155
Stiftelsen Lillehammer steinerskole;Lillehammer;*;*;*;61.0998604;10.4244938
Åretta ungdomsskole;Lillehammer;49;49;49;61.1006099;10.4767225
Lom ungdomsskule;Lom;*;*;*;61.838921;8.564292
Hedemarken friskole;Løten;51;53;50;60.8010225;11.3037854
Løten ungdomsskole;Løten;47;46;45;60.8203915;11.33838
Nord-Aurdal ungdomsskole;Nord-Aurdal;*;*;*;60.9884698;9.2403618
Valdres montessoriskule SA;Nord-Aurdal;*;*;*;60.998427;9.101026000000001
Vinstra ungdomsskole;Nord-Fron;50;48;46;61.5918693;9.7617425
Mo barne- og ungdomsskole;Nord-Odal;49;47;46;60.423664;11.642413
Nordre Land kommune 0-24 Torpa barne- og ungdomsskole;Nordre Land;51;49;50;60.9661071;10.1081095
Nordre Land kommune Dokka barne- og ungdomsskole;Nordre Land;50;47;45;60.83448789999999;10.0756769
Os skole;Os;49;47;47;62.496624;11.23802
Fagertun skole;Rendalen;48;44;45;61.720727;11.195858
Ringebu ungdomsskole;Ringebu;49;46;45;61.5266203;10.1455054
Brumunddal ungdomsskole;Ringsaker;49;45;43;60.8927518;10.9385501
Brøttum barne- og ungdomsskole;Ringsaker;51;49;49;61.0281513;10.5567884
Furnes ungdomsskole;Ringsaker;49;46;46;60.8507223;11.0408855
Moelv ungdomsskole;Ringsaker;49;49;45;60.9261273;10.6928242
Nes ungdomsskole;Ringsaker;50;47;45;60.800681;10.8436065
Heidal skule;Sel;*;*;*;61.7510542;9.3222085
Otta ungdomsskole;Sel;*;*;*;61.7755552;9.541708
Skjåk barne- og ungdomsskule;Skjåk;47;44;50;61.8836922;8.2628386
Ottestad ungdomsskole;Stange;50;48;49;60.7688406;11.1136498
Stange ungdomsskole;Stange;50;48;47;60.7153297;11.1995309
Steinerskolen på Hedemarken avd grunnskolen Ottestad;Stange;46;46;44;60.7774681;11.1027464
Stor-Elvdal ungdomsskole;Stor-Elvdal;51;49;49;61.566876;11.059712
Søndre Land ungdomsskole;Søndre Land;47;44;43;60.6842927;10.3545453
Hedalen barne- og ungdomsskole;Sør-Aurdal;*;*;*;60.6046541;9.7420634
Sør-Aurdal ungdomsskole;Sør-Aurdal;*;*;*;60.8247599;9.5530099
Sør-Fron ungdomsskule;Sør-Fron;47;47;47;61.5763409;9.8622559
Glommasvingen skole;Sør-Odal;45;45;42;60.257786;11.67013
Tolga skole;Tolga;49;47;49;62.4114022;10.9966047
Trysil ungdomsskole;Trysil;51;49;47;61.3153421;12.2677648
Kvikne skole;Tynset;*;*;*;62.5610682;10.3238832
Tynset ungdomsskole;Tynset;*;*;*;62.2718266;10.7766129
Vang barne- og ungdomsskule;Vang;50;50;49;61.130671;8.592836
Vestre Slidre skule;Vestre Slidre;48;48;48;61.0875496;8.9835312
Vestre Toten ungdomsskole;Vestre Toten;49;48;48;60.716713;10.607508
Vågå ungdomsskule;Vågå;50;49;48;61.8716877;9.0998685
Våler barne- og ungdomsskole;Våler (Innlandet);46;45;44;60.6737368;11.8298135
Lena ungdomsskole;Østre Toten;50;46;47;60.6788802;10.8010167
Skreia ungdomsskole;Østre Toten;48;48;48;60.6517858;10.92875
Toten montessoriskole;Østre Toten;;;;60.5976576;10.7344939
Øyer ungdomsskole;Øyer;46;44;44;61.2351318;10.4432029
Øystre Slidre ungdomsskule;Øystre Slidre;51;48;47;61.1324548;9.081785
Åmot Barne og ungdomsskole;Åmot;47;45;42;61.1402518;11.3679599
Åsnes ungdomsskole;Åsnes;48;46;47;60.6121494;12.0207838
Gossen barne- og ungdomsskole avd skole;Aukra;50;47;47;62.806707;6.8826449
Julsundet skole;Aukra;50;48;49;62.7724432;6.9931739
Aure barne- og ungdomsskole;Aure;*;*;*;63.268008;8.5344466
Tustna barne- og ungdomsskole;Aure;*;*;*;63.158431;7.963703
Averøy ungdomsskole;Averøy;48;46;46;63.0511244;7.6390648
Eidsdal skule;Fjord;*;*;*;62.2542451;7.1601384
Stordal skule;Fjord;*;*;*;62.382125;7.007992
Valldal skule;Fjord;*;*;*;62.301908;7.259656
Giske ungdomsskule;Giske;54;49;48;62.5022362;6.1323042
Batnfjord skule;Gjemnes;45;46;47;62.8926676;7.677178
Brattvåg ungdomsskule;Haram;50;46;45;62.5962988;6.4388161
Eidet skule;Haram;50;50;50;62.546373;6.59721
Haramsøy barne- og ungdomsskule;Haram;*;*;*;62.6441541;6.2605425
Hildre montessoriskule SA;Haram;*;*;*;62.6038155;6.3529263
Hareid ungdomsskule;Hareid;50;46;49;62.368023;6.017732
Herøy ungdomsskule;Herøy (Møre og Romsdal);49;*;*;62.3335409;5.647707
Møre barne- og ungdomsskule;Herøy (Møre og Romsdal);54;*;*;62.2784638;5.8073176
Eide ungdomsskole;Hustadvika;50;47;47;62.9193856;7.4468087
Fræna ungdomsskule;Hustadvika;51;47;48;62.854171;7.156407
Atlanten ungdomsskole;Kristiansund;51;47;47;63.1277339;7.7372986
Frei ungdomsskole;Kristiansund;49;47;45;63.0975263;7.8544374
Nordlandet ungdomsskole;Kristiansund;50;46;48;63.1125684;7.7624824
Bekkevoll ungdomsskole;Molde;51;50;50;62.740871;7.1407118
Bergmo ungdomsskole;Molde;53;52;51;62.7440635;7.2232231
Eidsvåg barne- og ungdomsskole;Molde;53;49;50;62.778045;8.074184
Eresfjord barne- og ungdomsskule;Molde;*;*;*;62.6617782;8.1148537
Midsund skule;Molde;53;48;51;62.6815325;6.6703845
Molde friskole;Molde;*;*;*;62.7373422;7.1218724
Skjevik barne- og ungdomsskole;Molde;44;45;47;62.7868336;7.532336
Tøndergård skole og ressurssenter;Molde;*;*;*;62.743326;7.208114
Vågsetra barne- og ungdomsskole;Molde;49;47;47;62.7139085;7.4253729
Måndalen barne- og ungdomsskule;Rauma;46;46;48;62.5309903;7.4358184
Åfarnes barne- og ungdomsskole;Rauma;52;50;49;62.6588821;7.5034956
Åndalsnes ungdomsskole;Rauma;51;48;50;62.5644729;7.6852263
Gursken oppvekstsenter avd skule;Sande;*;*;*;62.2170511;5.6530625
Kvamsøy barne- og ungdomsskule;Sande;*;*;*;62.2006971;5.4140455
Smøla ungdomsskole;Smøla;51;49;47;63.4600918;8.0095313
Geiranger skule;Stranda;*;*;*;62.099674;7.204527
Stranda ungdomsskule;Stranda;49;47;49;62.3064484;6.9149033
Sunnylven skule;Stranda;*;*;*;62.0847895;6.8706648
Sula ungdomsskule;Sula;51;47;48;62.4397675;6.2120744
Sunndal ungdomsskole;Sunndal;49;44;47;62.66974;8.593398
Surnadal barne- og ungdomsskule;Surnadal;50;46;46;62.98125;8.716892
Sykkylven ungdomsskule;Sykkylven;49;46;48;62.3947074;6.5862316
Straumsnes barne- og ungdomsskole;Tingvoll;*;*;43;63.0357876;8.0393527
Tingvoll barne- og ungdomsskole;Tingvoll;*;*;46;62.9143256;8.1970924
Ulstein ungdomsskule;Ulstein;51;48;49;62.3445362;5.8539212
Myklebust skule;Vanylven;*;*;*;62.087657;5.740295
Åheim skule;Vanylven;*;*;*;62.036029;5.533243
Helland ungdomsskule;Vestnes;46;42;41;62.5211249;7.1269769
Tomrefjord skule;Vestnes;51;48;49;62.602138;6.929263
Dalsfjord skule;Volda;*;*;*;62.112963;5.938836
Folkestad skule;Volda;*;*;*;62.117907;6.031575
Hornindal skule;Volda;54;48;53;61.976545;6.51911
Volda ungdomsskule;Volda;50;49;48;62.1463316;6.0786443
Sæbø skule;Ørsta;*;*;*;62.2068952;6.4742635
Vartdal skule;Ørsta;*;*;*;62.298176;6.091452
Ørsta ungdomsskule;Ørsta;50;48;49;62.195984;6.135169
Akademiet Realfagsungdomsskole Ålesund AS;Ålesund;59;57;57;62.47328270000001;6.1504579
Blindheim ungdomsskole;Ålesund;50;47;48;62.438821;6.38007
Ellingsøy barne- og ungdomsskole;Ålesund;52;51;51;62.493174;6.19572
Harøy skule;Ålesund;52;47;51;62.77158;6.457897
Kolvikbakken ungdomsskole;Ålesund;51;49;50;62.4721309;6.2140974
Møre barne- og ungdomsskule Skodje AS;Ålesund;*;*;*;62.484107;6.5067624
Skarbøvik ungdomsskole;Ålesund;48;45;45;62.4631677;6.1124084
Skodje barne- og ungdomsskole avd ungdomsskole;Ålesund;48;47;49;62.5046328;6.6317301
Spjelkavik ungdomsskole;Ålesund;51;48;51;62.461905;6.368437
Steinerskolen Ålesund;Ålesund;*;*;*;62.462039;6.266049
Stiftelsen Møre barne- og Ungdomsskule, Ålesund;Ålesund;50;47;45;62.4343013;6.3982646
Ørskog skule;Ålesund;51;49;48;62.4776723;6.8200132
Aalesund International School Sti;Ålesund;56;47;48;62.4655911;6.251226099999999
Sandnessjøen ungdomsskole;Alstahaug;49;47;46;66.0155597;12.601573
Søvik oppvekstsenter avd skole;Alstahaug;*;*;*;65.9216446;12.4483551
Tjøtta oppvekstsenter avd skole;Alstahaug;*;*;*;65.8229906;12.4270048
Andenes skole;Andøy;49;43;42;69.3160729;16.1287824
Risøyhamn skole;Andøy;49;46;45;68.968579;15.636839
Beiarn barne- og ungdomsskole;Beiarn;*;*;*;66.916132;14.768424
Bindalseidet skole SA;Bindal;*;*;*;65.1268844;12.232336
Terråk skole;Bindal;*;*;*;65.086116;12.367723
Alberthaugen skole;Bodø;*;*;*;67.274059;14.42673
Alstad ungdomsskole;Bodø;50;48;47;67.275097;14.486738
Bankgata ungdomsskole;Bodø;50;47;46;67.2789615;14.3897584
Hunstad ungdomsskole;Bodø;50;47;47;67.28242;14.542175
Kjerringøy oppvekstsenter avd skole;Bodø;*;*;*;67.51701;14.761825
Løpsmark skole;Bodø;53;49;49;67.3104829;14.4512237
Misvær oppvekstsenter avd skole;Bodø;*;*;*;67.11930439999999;15.0136669
Norges Toppidrettsgymnas ungdomsskole Bodø AS;Bodø;*;*;*;67.2803556;14.404916
Rønvik skole;Bodø;49;48;47;67.2963286;14.4186545
Saltvern skole;Bodø;53;51;49;67.2891967;14.4311788
Skjerstad oppvekstsenter avd skole;Bodø;*;*;*;67.2330873;15.0165269
St Eysteins skole;Bodø;*;*;*;67.2757827;14.3659777
Tverlandet skole;Bodø;50;48;47;67.2972568;14.7279171
Brønnøysund ungdomsskole;Brønnøy;50;49;49;65.466304;12.20902
Hilstad Barne-Og ungdomsskole;Brønnøy;49;51;45;65.409529;12.54483
Bø ungdomsskole;Bø;48;45;45;68.7217686;14.5919035
Dønna barne- og ungdomsskole;Dønna;*;*;*;66.107939;12.490327
Løkta oppvekstsenter avd skole;Dønna;*;*;*;66.1492091;12.7284506
Evenes skole;Evenes - Evenášši;50;50;52;68.4830049;16.8883717
Sulitjelma skole;Fauske - Fuossko;*;*;*;67.134484;16.069571
Valnesfjord skole;Fauske - Fuossko;*;*;*;67.295143;15.177556
Vestmyra skole;Fauske - Fuossko;49;46;45;67.2643815;15.3770206
Flakstad barne- og ungdomsskole;Flakstad;*;*;*;68.0918472;13.2295923
Vikten skole;Flakstad;*;*;*;68.138748;13.312834
Inndyr skole avd skole;Gildeskål;*;*;*;67.03615529999999;14.0351118
Nygårdsjøen oppvekstsenter avd skole;Gildeskål;*;*;*;67.1017773;14.3057446
Sandhornøy skole;Gildeskål;*;*;*;67.1360206;14.0788274
Sørarnøy skole og barnehage avd skole;Gildeskål;;*;;67.1415195;13.9703605
Grane barne- og ungdomsskole;Grane;55;54;53;65.5344215;13.4001263
Drag skole;Hábmer - Hamarøy;*;*;*;68.040368;16.08117
Hamarøy montessoriskole;Hábmer - Hamarøy;*;*;*;68.0233458;15.3490422
Oppeid skole;Hábmer - Hamarøy;*;*;*;68.083115;15.6237288
Melbu skole;Hadsel;47;44;46;68.503361;14.803934
Stokmarknes skole;Hadsel;49;46;47;68.5664881;14.9067493
Bleikvassli skole;Hemnes;*;*;*;65.916347;13.807486
Hemnes sentralskole;Hemnes;*;*;*;66.225854;13.607253
Korgen sentralskole;Hemnes;49;47;*;66.077643;13.808271
Herøy skole;Herøy (Nordland);52;49;55;65.97647;12.275334
Leirfjord barne- og ungdomsskole;Leirfjord;48;45;46;66.065339;12.938717
Konsvik oppvekstsenter avd skole;Lurøy;*;*;*;66.49904;13.09218
Kvarøy oppvekstsenter skole;Lurøy;*;*;*;66.4858551;12.9605545
Lovund skole;Lurøy;*;*;*;66.3665553;12.3577187
Onøy Lurøy oppvekstsenter avd skole;Lurøy;*;*;*;66.3983066;12.8683511
Sleneset oppvekstsenter skole;Lurøy;;;;66.3635288;12.5942675
Lødingen skole;Lødingen;*;*;*;68.4091271;15.9757767
Vestbygd skole;Lødingen;*;*;*;68.347844;15.508176
Bolga oppvekstsenter avd skole;Meløy;*;*;*;66.8023606;13.205873
Enga skole;Meløy;*;*;*;66.7843739;13.5319175
Neverdal Enspire skole AS;Meløy;55;49;52;66.83453159999999;13.7758067
Ørnes skole;Meløy;48;46;43;66.864582;13.7243563
Sørvågen skole;Moskenes;*;;;67.889407;13.016659
Ballangen skole;Narvik;48;*;48;68.3391075;16.825597
Kjøpsvik skole;Narvik;*;43;*;68.0994642;16.3864997
Narvik ungdomsskole;Narvik;51;46;47;68.4444299;17.4396694
Skjomen skole;Narvik;*;*;*;68.246395;17.412057
Nesna skole avd Nesna;Nesna;52;48;52;66.198574;13.0228596
Frikult grunnskole AS;Rana - Raane;*;*;*;66.3378225;14.0921857
Rana ungdomsskole;Rana - Raane;51;48;48;66.3151987;14.1487118
Storforshei barne- og ungdomsskole;Rana - Raane;48;46;48;66.403802;14.5278825
Utskarpen barne- og ungdomsskole;Rana - Raane;*;*;*;66.2929552;13.5636178
Jektvik skole;Rødøy;*;*;*;66.6247423;13.2908386
Nesøy skole;Rødøy;*;*;*;66.5954645;12.6451951
Rødøy skole;Rødøy;*;*;*;66.6614026;13.0760148
Tjongsfjord skole;Rødøy;*;48;49;66.6980997;13.4192097
Øresvik skole;Rødøy;*;*;*;66.462173;13.225498
Røst barne- og ungdomsskole;Røst;*;*;*;67.517863;12.1154871
Rognan ungdomsskole;Saltdal;48;48;46;67.0969977;15.3852987
Røkland skole grunnskolen;Saltdal;48;46;50;66.991539;15.328002
Sortland ungdomsskole;Sortland - Suortá;49;47;47;68.697884;15.407955
Steigenskolen Leinesfjord;Steigen;47;47;45;67.7770618;15.0163165
Vik skole;Sømna;53;50;50;65.313092;12.1685992
Nordsia oppvekstsenter skole;Sørfold - Fuolldá;*;*;;67.5845715;15.7336009
Straumen skole;Sørfold - Fuolldá;*;*;*;67.344047;15.5931639
Granmoen skole;Vefsn;49;46;46;65.977084;13.215423
Kippermoen ungdomsskole;Vefsn;49;47;46;65.8303223;13.2282353
Vega barne- og ungdomsskole;Vega;*;*;*;65.675159;11.951084
Ballstad skole;Vestvågøy;51;47;47;68.084381;13.538986
Bøstad skole;Vestvågøy;*;*;*;68.239284;13.751981
Leknes skole;Vestvågøy;48;46;44;68.146443;13.619627
Opdøl montessoriskole Barne og ungdomsskole;Vestvågøy;*;*;*;68.186768;13.652838
Svarholt skole;Vestvågøy;50;47;45;68.137549;13.837688
Vevelstad sentralskole;Vevelstad;*;*;*;65.701312;12.440747
Værøy skole;Værøy;*;*;*;67.666406;12.6875706
Gimsøy skole;Vågan;*;*;*;68.32003;14.1996
Henningsvær skole;Vågan;*;*;*;68.15216;14.196658
Kabelvåg skole;Vågan;52;47;48;68.2167969;14.4662476
Laukvik skole;Vågan;*;*;*;68.39038;14.47026
Laupstad skole;Vågan;;;;68.356392;14.741293
Skrova skole;Vågan;*;*;*;68.1694226;14.6611335
Strauman oppvekstsenter;Vågan;*;*;*;68.285827;14.347396
Svolvær skole;Vågan;49;46;43;68.238891;14.5596784
Ørsnes privatskole;Vågan;*;*;*;68.200513;14.395262
Myre skole;Øksnes;48;44;46;68.9159106;15.0859659
Hattfjelldal oppvekstsenter avd skole;Aarborte - Hattfjelldal;49;45;44;65.5978384;14.000663
Abildsø skole;Oslo;55;52;51;59.8817366;10.8264847
Akademiet realfagsskole Oslo AS;Oslo;60;60;60;59.93353;10.772638
Apalløkka skole;Oslo;53;50;50;59.9596149;10.86445
Bentsebrua skole;Oslo;54;53;52;59.9373822;10.7613995
Bjørnholt ungdomsskole;Oslo;50;46;47;59.835869;10.833681
Bjørnsletta skole;Oslo;56;54;55;59.928654;10.6425735
Bjøråsen skole;Oslo;50;46;43;59.9705144;10.9008146
Brannfjell skole;Oslo;55;55;55;59.8878426;10.782125
Bøler skole;Oslo;56;54;55;59.8838953;10.8491743
Ellingsrud skole;Oslo;52;50;47;59.9352013;10.9175156
Engebråten skole;Oslo;53;55;53;59.95984;10.775419
Fagerborg skole;Oslo;55;53;52;59.933129;10.7299682
Frydenberg skole;Oslo;53;51;52;59.928388;10.789637
Fyrstikkalleen skole;Oslo;54;51;50;59.9157259;10.7958635
Granstangen skole;Oslo;51;48;47;59.944111;10.901366
Groruddalen skole;Oslo;52;48;48;59.9545115;10.8888295
Haugenstua skole;Oslo;50;46;48;59.9538383;10.9202333
Haugerud skole;Oslo;51;48;48;59.9223503;10.8595321
Hauketo skole;Oslo;49;47;45;59.8381658;10.81364
Haukåsen skole;Oslo;;;;59.9233745;10.863445
Holmlia skole;Oslo;51;49;48;59.8331388;10.7907944
Hovseter skole;Oslo;55;55;55;59.9499189;10.6555847
Høyenhall skole;Oslo;53;53;51;59.8991779;10.81295
Jordal skole;Oslo;54;51;48;59.908411;10.7833698
Karlsrud skole;Oslo;55;52;53;59.8778455;10.8101561
Kastellet skole;Oslo;55;53;53;59.8729364;10.7928275
Kristelig gymnasium AS grunnskole;Oslo;57;57;53;59.92426739999999;10.7296561
Lambertseter skole;Oslo;48;47;49;59.8716392;10.8160687
Lindeberg skole;Oslo;51;47;49;59.9314545;10.8801598
Linderud skole;Oslo;49;43;45;59.9405182;10.8341715
Ljabruskolen - steinerskole for Elever Med Spesielle Behov Sti;Oslo;;;;59.8499145;10.8043963
Lofsrud skole;Oslo;51;48;48;59.8461238;10.8280503
Lycee Francais Rene Cassin Doslo;Oslo;57;53;57;59.9171054;10.7175156
Lønnebakken skole;Oslo;*;*;*;59.9458532;10.8583003
Majorstuen skole;Oslo;55;54;52;59.9290061;10.7132113
Manglerud skole;Oslo;55;53;54;59.8945599;10.823096
Marienlyst skole;Oslo;57;56;55;59.934957;10.7229028
Midtstuen skole;Oslo;55;57;55;59.960488;10.687591
Morellbakken skole;Oslo;56;56;54;59.9484827;10.7808943
Nordberg skole;Oslo;55;56;57;59.962681;10.7315313
Nordpolen skole;Oslo;54;54;50;59.9399108;10.7718683
Nordseter skole;Oslo;53;54;55;59.8670285;10.7958636
Nordstrand ungdomsskole;Oslo;55;55;54;59.8598365;10.7955727
Nordvoll skole;Oslo;;;;59.9239294;10.8647258
Norlights International School Oslo AS;Oslo;63;*;58;59.96161579999999;10.6921527
Nyskolen i Oslo grunnskole;Oslo;*;51;49;59.8634086;10.8389793
Oppsal skole;Oslo;56;55;54;59.8979404;10.8440061
Oslo kommune Språksenteret;Oslo;*;;;59.921994;10.770175
Oslo montessoriskole;Oslo;54;56;50;59.9639147;10.6927522
Ris skole;Oslo;56;56;57;59.9454221;10.7067386
Rommen skole;Oslo;52;48;46;59.9667545;10.9141406
Rudolf steinerskolen i Oslo Sti;Oslo;48;49;47;59.9493186;10.6568737
Ruseløkka skole;Oslo;56;54;53;59.9132435;10.7254875
Ryenberget skole;Oslo;51;48;48;59.8988205;10.8022744
Sagene skole;Oslo;54;50;49;59.9312174;10.7598896
Skullerud skole;Oslo;53;51;51;59.8701731;10.8486639
Skøyenåsen skole;Oslo;54;53;52;59.8956171;10.8364471
Sofienberg skole;Oslo;54;50;49;59.922086;10.769772
Sollerudstranda skole;Oslo;;;;59.9135383;10.6474109
St Sunniva skole avd Undervisning;Oslo;53;50;51;59.9187763;10.7452095
Stasjonsfjellet skole;Oslo;53;51;51;59.949233;10.928002
Steinerskolen på Nordstrand;Oslo;49;51;42;59.861879;10.79017
Stiftelsen Den Tysk-Norske skolen i Oslo avd grunnskole og videregående;Oslo;55;53;55;59.9362861;10.7591832
Stiftelsen montessoriskolen Lyse;Oslo;50;50;*;59.9312396;10.6428908
Teglverket skole;Oslo;55;54;51;59.9236874;10.7949647
Tokerud skole;Oslo;51;46;47;59.9659338;10.9303839
Ullevålsveien skole;Oslo;;;;59.9292785;10.7363218
Uranienborg skole;Oslo;54;51;49;59.9200769;10.7189385
Veitvet skole;Oslo;52;49;47;59.9417435;10.8543925
Vestre Aker skole;Oslo;*;*;*;59.9407584;10.7343249
Vetland skole grunnskole;Oslo;;*;*;59.8972682;10.8437798
Voksentoppen skole;Oslo;;*;;59.977962;10.6636592
Voldsløkka skole;Oslo;55;55;54;59.942748;10.7494206
Vollebekk skole;Oslo;52;49;48;59.9373465;10.827204
Wang Ung Oslo AS;Oslo;56;59;58;59.92996589999999;10.7560283
Øraker skole;Oslo;57;55;55;59.9254876;10.6389958
Østmarka skole;Oslo;*;*;*;59.8902324;10.8528971
Årvoll skole;Oslo;56;54;53;59.9443074;10.8137623
Vikeså skule;Bjerkreim;51;49;53;58.63844;6.092869
Bokn skule;Bokn;*;*;*;59.2300805;5.4370425
Gamleveien skole;Eigersund;*;*;*;58.457081;6.012316
Hellvik skole;Eigersund;52;47;52;58.482663;5.887208
Husabø ungdomsskole;Eigersund;51;49;50;58.4483427;6.0004826
Lagård ungdomsskole;Eigersund;48;46;47;58.4650307;6.0151588
Samfundets skole Egersund;Eigersund;*;*;*;58.445263;6.004577
Dirdal skole;Gjesdal;47;45;45;58.815705;6.218146
Gjesdal ungdomsskole;Gjesdal;51;51;51;58.76826;5.866045
Kongstun Kristne friskole;Gjesdal;50;48;48;58.7781207;5.8357643
Oltedal skole;Gjesdal;53;47;49;58.826431;6.034382
Haraldsvang skole;Haugesund;52;49;48;59.4236236;5.282219
Haugesund Toppidrettsgymnas AS;Haugesund;51;48;49;59.42576260000001;5.2743283
Håvåsen skole;Haugesund;52;48;47;59.40081;5.2877948
Røvær skole;Haugesund;;;;59.43775;5.090108
Skåredalen skole;Haugesund;51;49;47;59.411453;5.324681
Steinerskolen i Haugesund;Haugesund;48;49;43;59.418452;5.299388
Hjelmeland skule;Hjelmeland;50;51;51;59.2305331;6.1687922
Nærbø ungdomsskule;Hå;49;45;47;58.670163;5.639119
Ogna skule;Hå;50;48;51;58.517759;5.809038
Tryggheim ungdomsskule;Hå;48;49;48;58.6733714;5.6342225
Varhaug ungdomsskule;Hå;49;45;46;58.6201521;5.6599773
Vigrestad storskule;Hå;47;44;42;58.570164;5.701873
Bø ungdomsskole;Karmøy;49;47;47;59.3644849;5.2777028
Danielsen ungdomsskole Haugalandet AS;Karmøy;47;47;45;59.3817653;5.312075099999999
Danielsen ungdomsskole Karmøy AS;Karmøy;48;48;47;59.28810240000001;5.2446774
Haugesund International School Sti;Karmøy;55;43;46;59.38999219999999;5.2448461
Skudenes ungdomsskole;Karmøy;47;45;42;59.15332;5.252548
Stangeland ungdomsskole;Karmøy;51;47;47;59.2766339;5.3135928
Vormedal ungdomsskole;Karmøy;49;47;48;59.35839;5.325426
Åkra ungdomsskole;Karmøy;46;45;44;59.254825;5.196608
Bore ungdomsskule;Klepp;51;47;51;58.7899659;5.6025055
Klepp ungdomsskule;Klepp;51;48;49;58.777136;5.642264
Orstad skule;Klepp;54;52;53;58.7871892;5.7131218
Kvitsøy skole;Kvitsøy;*;*;*;59.0652309;5.4120202
Lund ungdomsskole;Lund;50;48;49;58.4524894;6.5519451
Goa skole;Randaberg;51;48;52;58.9855597;5.6311153
Grødem skole;Randaberg;51;50;51;59.0103682;5.6536543
Harestad skole;Randaberg;49;47;49;59.0026265;5.6282129
Bogafjell ungdomsskole;Sandnes;51;47;48;58.822096;5.744317
Figgjo skole;Sandnes;53;51;52;58.7870286;5.8057876
Forsand skule;Sandnes;*;*;*;58.8974353;6.1327058
Forus friskole - Bus;Sandnes;*;*;*;58.8832295;5.7391672
Giske ungdomsskole;Sandnes;50;47;50;58.86139;5.727498
Høle barne- og ungdomsskule;Sandnes;*;*;*;58.896918;6.017984
Høyland ungdomsskole;Sandnes;53;49;50;58.843341;5.7430528
Lundehaugen ungdomsskole;Sandnes;50;49;50;58.8275645;5.7266364
Lurahammaren ungdomsskole;Sandnes;53;48;50;58.881533;5.7460214
Riska ungdomsskole;Sandnes;51;48;49;58.926656;5.847051
Sandnes friskole AS;Sandnes;56;56;54;58.8238813;5.717138299999999
Sandnes International School AS;Sandnes;58;40;47;58.8828251;5.7415339
Skeiane ungdomsskole;Sandnes;52;50;49;58.847413;5.720504
Vatneli skole;Sandnes;*;*;*;58.859148;5.772301
Wang Ung Sandnes AS;Sandnes;53;54;54;58.862175;5.7225312
Øygard ungdomsskole;Sandnes;50;48;47;58.8529629;5.7653543
Sauda ungdomsskule;Sauda;49;48;48;59.652406;6.356142
Sokndal skole;Sokndal;47;46;44;58.344054;6.296031
Dysjaland skule;Sola;50;47;48;58.840719;5.600638
Kjerrberget ungdomsskole;Sola;54;51;53;58.8846692;5.6701992
Sola ungdomsskole;Sola;52;50;50;58.895435;5.658745
Tananger ungdomsskole;Sola;52;51;49;58.937176;5.599271
Auglend skole;Stavanger;*;*;*;58.94684;5.726762
Austbø skole;Stavanger;53;50;52;58.9953507;5.735583
Biss Gausel Sti;Stavanger;63;48;57;58.8972309;5.7335555
Biss Sentrum AS;Stavanger;62;45;52;58.9753288;5.7126109
Finnøy skule;Stavanger;51;*;*;59.1744539;5.8715735
Gautesete skole;Stavanger;53;50;49;58.899212;5.72327
Gosen skole;Stavanger;53;50;51;58.9406917;5.6843173
Hinna skole;Stavanger;53;50;51;58.919329;5.724708
Johannes læringssenter Flerspråklige Barn;Stavanger;*;;;58.9673177;5.7551632
Kannik skole;Stavanger;54;52;53;58.9644884;5.7227699
Kristen friskole AS;Stavanger;53;52;49;58.9517458;5.7029362
Kristianslyst skole;Stavanger;53;50;51;58.937698;5.734768
Lunde skole;Stavanger;50;45;46;58.0967352;7.7711289
Norlights montessoriskole Stavanger AS;Stavanger;*;*;*;58.89365549999999;5.724426100000001
Rennesøy skule;Stavanger;50;49;50;59.105185;5.6970463
Revheim skole;Stavanger;52;49;50;58.952129;5.6421466
Smiodden skole;Stavanger;53;48;47;58.968346;5.607703
St. Svithun skole;Stavanger;51;48;47;58.9646528;5.7401266
Stavanger Kristne grunnskole;Stavanger;*;*;*;58.960849;5.691295
Steinerskolen Stavanger grunnskole;Stavanger;52;49;46;58.938509;5.734847
Tastarustå skole;Stavanger;52;51;49;58.9862985;5.691017
Tastaveden skole;Stavanger;54;50;49;58.9795943;5.7008676
Ullandhaug skole;Stavanger;53;50;49;58.9498016;5.723436
Wang Ung Stavanger AS;Stavanger;52;53;54;58.95448990000001;5.6998677
Jørpeland ungdomsskole;Strand;51;48;50;59.0285624;6.0286276
Kfskolen - Jørpeland;Strand;51;49;51;59.027069;6.025578
Tau ungdomsskole;Strand;49;47;47;59.062365;5.9244584
Tryggheim Strand AS;Strand;50;50;50;59.0671006;5.9203225
Sand skule avd skule;Suldal;48;49;49;59.49165199999999;6.2542059
Bryne ungdomsskule;Time;51;50;50;58.7339833;5.6426384
Frøyland ungdomsskule;Time;53;51;51;58.772014;5.7265498
Jærtun Lutherske friskule;Time;47;53;57;58.730016;5.664254
Lye ungdomsskule;Time;46;45;46;58.733395;5.738781
Vardheia ungdomsskule;Time;51;48;49;58.7412088;5.644215
Frakkagjerd ungdomsskole;Tysvær;48;48;48;59.4120895;5.4027816
Nedstrand barne- og ungdomsskule;Tysvær;51;51;48;59.348863;5.798302
Tysværvåg barne- og ungdomsskule;Tysvær;51;47;49;59.333951;5.485997
Utsira skole;Utsira;*;*;*;59.305707;4.8877612
Skjold skule;Vindafjord;48;49;48;59.506205;5.596689
Vikedal skule;Vindafjord;44;45;46;59.496903;5.90859
Ølen skule;Vindafjord;46;48;47;59.604518;5.813243
Bamble ungdomsskole;Bamble;49;46;47;59.0283296;9.7024637
Drangedal 10-Årige skole;Drangedal;50;47;49;59.09819;9.057917
Gimle skule;Fyresdal;45;45;43;59.186477;8.086589
Sauland skule;Hjartdal;43;46;45;59.620404;8.930894
Kragerø skole;Kragerø;51;48;47;58.8674668;9.4089338
Kviteseid skule;Kviteseid;45;46;51;59.410889;8.4743149
Bø ungdomsskule;Midt-Telemark;47;45;45;59.41623;9.052345
Gvarv skole;Midt-Telemark;*;*;*;59.3880656;9.1897282
Sauar friskole;Midt-Telemark;*;*;*;59.41963;9.280634
Tveit skule / Nissedal ungdomsskule;Nissedal;51;50;49;59.0241316;8.5204674
Holla 10-Årige skole;Nome;53;48;49;59.278989;9.262437
Lunde 10-Årige skole;Nome;50;46;46;59.306893;9.101499
Gransherad skole;Notodden;*;*;*;59.6927;9.026822
Heddal ungdomsskole;Notodden;*;*;*;59.5695338;9.2114174
Notodden ungdomsskole;Notodden;48;45;44;59.570974;9.272477
Heistadskolene avd Ungdom;Porsgrunn;51;48;47;59.1385567;9.6555147
Kjølnes ungdomsskole;Porsgrunn;50;47;47;59.1403182;9.6651435
Sandøya montessoriskole;Porsgrunn;*;*;*;59.050366;9.729837
Stiftelsen International School Telemark;Porsgrunn;*;*;*;59.1055274;9.6814783
Telemark Toppidrett ungdomsskole Porsgrunn AS;Porsgrunn;50;50;51;59.1394128;9.6703739
Tveten ungdomsskole;Porsgrunn;49;47;47;59.1161086;9.6993397
Vestsiden skole;Porsgrunn;53;50;48;59.146152;9.6380182
Seljord barne- og ungdomsskule skole 1-10;Seljord;52;52;50;59.4830576;8.6229899
Siljan ungdomsskole;Siljan;53;52;51;59.283029;9.7337346
Bølehøgda skole;Skien;;;;59.1847816;9.6375989
Gimsøy skole;Skien;48;48;45;68.32003;14.1996
Gjerpen ungdomsskole;Skien;49;48;46;59.2256218;9.6056219
Gulset ungdomsskole;Skien;49;46;44;59.2157936;9.5640829
Kongerød ungdomsskole;Skien;52;49;49;59.149038;9.618977
Menstad ungdomsskole;Skien;50;48;47;59.1723327;9.6465302
Mæla ungdomsskole;Skien;*;*;*;59.21857;9.585384
Oasen skole Grenland AS;Skien;50;51;49;59.2072798;9.5679599
Skauen Kristelige skole;Skien;48;52;52;59.1942334;9.6304571
Skien kommune Spesialpedagogisk Enhet;Skien;*;*;*;59.2074695;9.6105133
Telemark Toppidrett ungdomsskole Skien AS;Skien;48;48;48;59.2122369;9.590188399999999
Atrå barne- og ungdomsskole;Tinn;51;48;47;59.987721;8.736121
Rjukan ungdomsskole;Tinn;*;*;*;59.880561;8.630303
Tinn montessoriskole SA;Tinn;*;*;*;60.0477578;8.8189364
Høydalsmo skule;Tokke;*;*;*;59.4981467;8.1953745
Tokke skule;Tokke;*;*;*;59.446297;7.986363
Edland skule avd skule;Vinje;*;*;*;59.73834919999999;7.597175699999999
Rauland skule avd skule;Vinje;49;47;46;59.6945875;8.0646003
Åmot skule avd skule;Vinje;*;*;*;59.572815;7.9904943
Laksvatn oppvekstsenter avd skole;Balsfjord;*;*;*;69.377178;19.3667836
Malangen skole;Balsfjord;*;*;*;69.3317693;18.9010924
Nordkjosbotn skole;Balsfjord;52;47;*;69.216643;19.5628308
Storsteinnes skole;Balsfjord;49;46;45;69.237018;19.2134314
Bardu ungdomsskole;Bardu;49;46;46;68.8740742;18.3617162
Grov skole;Dielddanuorri - Tjeldsund;*;*;*;68.678161;17.120938
Ramsund skole;Dielddanuorri - Tjeldsund;*;*;*;68.493184;16.518401
Skånland skole;Dielddanuorri - Tjeldsund;48;46;43;68.5802405;16.5829349
Elvetun skole;Dyrøy;47;46;42;69.0881395;17.6973243
Indre Kåfjord barne- og ungdomsskole;Gáivuotna - Kåfjord - Kaivuono;*;*;*;69.469272;20.920538
Manndalen skole;Gáivuotna - Kåfjord - Kaivuono;*;*;*;69.5262456;20.5266678
Olderdalen skole;Gáivuotna - Kåfjord - Kaivuono;*;*;*;69.6051785;20.5344448
Gratangsbotn skole;Gratangen - Rivtták;*;*;*;68.67260139999999;17.6944891
Montessoriskolen Morgan AS;Gratangen - Rivtták;*;*;*;68.69544789999999;17.4912636
Hagebyen skole;Harstad - Hárstták;51;47;47;68.8138852;16.5435205
Kila skole;Harstad - Hárstták;52;50;50;68.7337361;16.5632135
Seljestad ungdomsskole;Harstad - Hárstták;52;48;48;68.787865;16.530569
Stangnes skole;Harstad - Hárstták;*;*;*;68.787077;16.583203
Øyriket oppvekstsenter avd skole;Harstad - Hárstták;*;*;*;69.0144072;16.4725171
Andørja montessoriskole;Ibestad;*;*;*;68.917851;17.165543
Ibestad skole;Ibestad;*;*;*;68.785074;17.157938
Hansnes barne- og ungdomsskole;Karlsøy;*;*;*;69.9613128;19.6068772
Vannvåg oppvekstsenter avd skole;Karlsøy;*;*;*;70.07301079999999;19.9786927
Borkenes skole;Kvæfjord;52;49;49;68.773333;16.179925
Kvænangen barne- og ungdomsskole;Kvænangen;*;*;*;69.9320029;22.041418
Lavangen skole;Loabák - Lavangen;51;50;49;68.746774;17.813489
Eidebakken skole;Lyngen;*;*;*;69.575713;20.196784
Lenangen skole;Lyngen;*;*;*;69.813049;20.0248504
Bardufoss ungdomsskole;Målselv;47;46;48;69.052727;18.484924
Bjørkeng oppvekstsenter avd skole;Målselv;*;*;*;69.027974;19.2962776
Sameskolen i Troms;Målselv;*;*;*;69.100786;18.58841
Øvergård montessoriskole;Målselv;*;*;*;69.021238;19.447656
Reisa montessoriskole;Nordreisa - Ráisa - Raisi;*;*;*;69.745537;21.111743
Storslett skole;Nordreisa - Ráisa - Raisi;47;44;44;69.7654895;21.0242226
Straumfjordnes skole;Nordreisa - Ráisa - Raisi;*;*;*;69.868798;21.213897
Salangen kommune Salangen skole;Salangen;51;47;44;68.8740688;17.8434515
Berg montessoriskole;Senja;*;*;*;69.44718;17.290889
Botnhamn skole grunnskole 1.-10.;Senja;*;*;*;69.5008945;17.870606
Finnsnes ungdomsskole;Senja;50;44;45;69.2343792;17.9957292
Gibostad barne- og ungdomsskole;Senja;*;*;*;69.3545246;18.0635699
Gryllefjord skole;Senja;*;*;*;69.3628222;17.045179
Husøy skole;Senja;*;*;*;69.5439037;17.6597625
Kårvik skole;Senja;*;*;*;69.391301;18.1823874
Medby skole;Senja;*;*;*;69.280904;17.051599
Nordborg ungdomsskole;Senja;50;48;46;69.2302872;17.9956217
Rossfjord barne- og ungdomsskole;Senja;*;*;*;69.3654409;18.3273322
Senja montessoriskole;Senja;*;*;*;69.5048307;17.6274432
Senjahopen skole;Senja;*;*;*;69.496202;17.484438
Stonglandet skole;Senja;*;*;*;69.08686;17.187995
Vikstranda skole;Senja;*;*;*;69.1720039;17.7505896
Skjervøy ungdomsskole;Skjervøy;47;44;41;70.0333938;20.9715515
Hatteng skole;Storfjord - Omasvuotna - Omasvuono;48;46;44;69.2731478;19.9624061
Longyearbyen skole grunnskole;Svalbard;55;52;50;78.2103398;15.6130256
Sørreisa ungdomsskole;Sørreisa;45;44;47;69.1449457;18.1596589
Ekrehagen skole Adventistsamfunnets Grunnskoler;Tromsø;52;47;49;69.685891;18.9551534
Grønnåsen skole;Tromsø;50;45;47;67.28083;14.46653
Hillesøyskolen Brensholmen skole;Tromsø;*;*;*;69.598864;18.04764
Kroken skole;Tromsø;49;46;47;58.9706119;9.1610414
Kvaløysletta skole;Tromsø;50;47;47;69.696117;18.8786854
Lakselvbukt skole;Tromsø;*;*;*;69.433859;19.645343
Langnes skole;Tromsø;51;49;50;69.6815235;18.9401529
Norges Toppidrettsgymnas ungdomsskole Tromsø AS;Tromsø;53;52;53;69.6496736;18.9350175
Ramfjord skole;Tromsø;52;46;52;69.5591638;19.1855435
Sommerlyst skole;Tromsø;54;50;52;69.651941;18.934427
Steinerskolen i Tromsø Sti;Tromsø;54;49;48;69.6409638;18.9347625
Stiftelsen Tromsø International School;Tromsø;58;52;50;69.681299;18.9655023
Storelva skole;Tromsø;53;48;50;69.684588;18.7966386
Straumsbukta skole;Tromsø;*;*;*;69.5765;18.628501
Tromstun skole;Tromsø;52;49;50;69.6503119;19.0147374
Trondjord skole;Tromsø;*;*;*;69.840387;18.865928
Lauvsnes skole;Flatanger;51;*;*;64.497828;10.906349
Frosta skole;Frosta;52;49;48;63.5865716;10.7372608
Frøya ungdomsskole;Frøya;*;*;*;63.730528;8.8260248
Mausund oppvekstsenter avd skole;Frøya;*;*;*;63.7967879;8.6861788
Grong barne- og ungdomsskole;Grong;48;45;44;64.4647501;12.3102764
Halsa barne- og ungdomsskole;Heim;49;47;46;63.1199545;8.322643
Sodin skole;Heim;49;46;44;63.2919435;9.0813117
Fillan skole;Hitra;50;47;48;63.6027148;8.9750119
Holtålen kommune Hov skole;Holtålen;55;54;52;62.84242279999999;11.2909801
Høylandet barne- og ungdomsskole;Høylandet;51;49;48;64.625102;12.290765
Inderøy ungdomsskole;Inderøy;47;47;46;63.878775;11.285637
Mælan skole;Indre Fosen;*;*;*;63.75313;10.132458
Stadsbygd skole;Indre Fosen;47;45;45;63.511834;10.001422
Testmann Minne skole;Indre Fosen;52;48;48;63.6805398;10.6056591
Vanvikan skole;Indre Fosen;*;*;*;63.555811;10.221984
Åsly skole;Indre Fosen;49;48;47;63.586873;9.962247
Leka barne- og ungdomsskole;Leka;*;*;*;65.094337;11.7067
Levanger ungdomsskole;Levanger - Levangke;50;48;48;63.7521654;11.3049935
Skogn barne- og ungdomsskole;Levanger - Levangke;49;46;46;63.69918;11.2037816
Vårtun Kristne oppvekstsenter SA;Levanger - Levangke;48;45;47;63.7407007;11.2516278
Ytterøy barne- og ungdomsskole;Levanger - Levangke;*;*;*;63.69918;11.2037816
Åsen barne- og ungdomsskole;Levanger - Levangke;*;*;*;63.61183089999999;11.050696
Lierne kommune - Stortangen skole;Lierne;*;*;*;64.46096;13.598644
Lierne kommune - Sørli skole;Lierne;*;*;*;64.2230369;13.8355535
Hommelvik ungdomsskole;Malvik;51;49;48;63.4094487;10.8015108
Vikhammer skole;Malvik;;;;63.4385187;10.6362753
Vikhammer ungdomsskole;Malvik;53;50;50;63.4376645;10.6311472
Eid skole;Melhus;51;50;49;63.1695225;10.1130152
Gimse ungdomsskole;Melhus;48;47;46;63.286028;10.260798
Lundamo ungdomsskole;Melhus;48;47;46;63.150619;10.284668
Øya videregående skole;Melhus;45;44;42;63.2476766;10.2730248
Meråker skole;Meråker;52;48;50;63.413249;11.733703
Støren ungdomsskole;Midtre Gauldal;44;45;44;63.035735;10.286185
Bangsund skole;Namsos - Nåavmesjenjaelmie;53;50;47;64.39210589999999;11.3975063
Bjørkly skole;Namsos - Nåavmesjenjaelmie;*;*;*;64.4106106;11.4747427
Høknes ungdomsskole;Namsos - Nåavmesjenjaelmie;51;46;48;64.47250439999999;11.5211972
Jøa barne- og ungdomsskole;Namsos - Nåavmesjenjaelmie;*;*;*;64.6522528;11.265237
Namdalseid skole;Namsos - Nåavmesjenjaelmie;50;45;45;64.2406048;11.2085927
Namsos ungdomsskole;Namsos - Nåavmesjenjaelmie;48;44;45;64.4704024;11.5114299
Otterøy oppvekstsenter avd skole;Namsos - Nåavmesjenjaelmie;*;*;*;64.5398738;11.2668408
Statland skole;Namsos - Nåavmesjenjaelmie;*;*;*;64.4970632;11.1341917
Namsskogan skole;Namsskogan;*;*;*;64.9250685;13.161329
Austafjord skole;Nærøysund;*;*;*;64.91787;10.942743
Kolvereid skole;Nærøysund;48;47;46;64.8632685;11.597365
Rørvik skole;Nærøysund;48;44;45;64.8711255;11.2391862
Val Skoler AS avd Vgs;Nærøysund;*;*;*;64.9135214;10.5378601
Oppdal ungdomsskole;Oppdal;*;*;*;62.59604;9.685243
Vollan skole;Oppdal;*;*;*;62.575543;9.6342
Grøtte skole;Orkland;48;49;49;63.2612401;9.8110749
Lensvik skole;Orkland;53;49;53;63.5057889;9.8234578
Løkken Verk montessoriskole SA;Orkland;*;*;*;63.12642109999999;9.7071875
Meldal barne- og ungdomsskole;Orkland;52;48;48;63.0424163;9.7016376
Orkanger ungdomsskole;Orkland;51;46;48;63.3056331;9.8521508
Aa skole;Orkland;*;*;*;63.399166;9.502278
Årlivoll skole;Orkland;45;46;47;63.171584;9.744006
Strand barne- og ungdomsskole;Osen;*;*;*;64.322437;10.456993
Overhalla barne- og ungdomsskole;Overhalla;*;*;*;64.497881;11.962529
Overhalla montessoriskole SA;Overhalla;*;*;*;64.4644227;12.0544589
Rennebu barne- og ungdomsskole;Rennebu;*;*;*;62.8295953;10.0064129
Voll skole AS;Rennebu;*;*;*;62.87648549999999;9.8377602
Rindal skole;Rindal;49;52;52;63.0583209;9.2115405
Røros skole;Røros - Rosse;51;51;49;62.57776729999999;11.3699308
Røyrvik oppvekstsenter Avdeling skole;Raarvihke - Røyrvik;*;*;*;64.8840161;13.5625541
Selbu ungdomsskole;Selbu;46;46;50;63.2269955;11.0326731
Skaun ungdomsskole;Skaun;50;46;46;63.3243084;10.0616628
Snåsa montessoriskole SA;Snåase - Snåsa;*;*;*;64.2786239;12.5272364
Snåsa skole;Snåase - Snåsa;*;*;*;64.246639;12.364104
Egge ungdomsskole;Steinkjer;52;49;49;64.032326;11.483873
Malm skole;Steinkjer;*;*;*;64.0694245;11.2154601
Steinkjer montessoriskole;Steinkjer;*;*;*;64.0144;11.477604
Steinkjer ungdomsskole;Steinkjer;49;47;47;64.0185434;11.5117553
Fagerhaug International School AS;Stjørdal;57;49;52;63.4712526;10.9456154
Fagerhaug Kristne skole SA;Stjørdal;45;46;45;63.4712526;10.9456154
Halsen ungdomsskole;Stjørdal;49;48;48;63.470696;10.92608
Hegra ungdomsskole;Stjørdal;50;48;46;63.4683836;11.1098064
Stokkan ungdomsskole;Stjørdal;51;48;47;63.4775248;10.9274408
Birralee International School Trondheim AS avd skole;Trondheim - Tråante;62;52;56;63.42718720000001;10.3899759
Blussuvoll skole;Trondheim - Tråante;53;50;49;63.4201251;10.430043
Charlottenlund ungdomsskole;Trondheim - Tråante;55;54;52;63.4268995;10.4898024
Dalgård skole og ressurssenter;Trondheim - Tråante;;;;63.3953468;10.3421019
Flatåsen skole;Trondheim - Tråante;52;45;44;63.3761168;10.3393667
Heimdal Friskole, Kristen grunnskole Heimdal;Trondheim - Tråante;*;*;*;63.36138339999999;10.3519884
Hoeggen skole;Trondheim - Tråante;50;48;48;63.400427;10.433466
Huseby ungdomsskole;Trondheim - Tråante;48;45;44;63.363529;10.3513633
Klæbu ungdomsskole;Trondheim - Tråante;47;46;42;63.3051813;10.4650198
Lade skole;Trondheim - Tråante;52;49;51;63.4468443;10.4366242
Markaplassen skole;Trondheim - Tråante;51;49;49;63.4128549;10.5285542
Nidaros idrettsungdomsskole Sti;Trondheim - Tråante;50;49;49;63.367767;10.3805627
Rosenborg skole;Trondheim - Tråante;53;50;49;63.4294038;10.4176726
Rosten skole;Trondheim - Tråante;54;48;50;63.3590806;10.3803886
Selsbakk skole;Trondheim - Tråante;52;49;50;63.3934658;10.3677791
Sjetne skole;Trondheim - Tråante;51;49;48;63.36809;10.395213
Spongdal skole;Trondheim - Tråante;49;48;47;63.3545798;10.1639888
Steinerskolen i Trondheim grunnskole;Trondheim - Tråante;51;53;48;63.430361;10.372582
Stiftelsen steinerskolen Rotvoll;Trondheim - Tråante;54;*;*;63.4395517;10.4855429
Stiftelsen Trondheim International School;Trondheim - Tråante;63;51;57;63.4290426;10.4129556
Stiftelsen Trondheim Kristne Grunnskole, tomasskolen;Trondheim - Tråante;52;49;48;63.4294197;10.4140159
Sunnland skole;Trondheim - Tråante;54;50;51;63.3992285;10.4060912
Sverresborg skole;Trondheim - Tråante;54;51;51;63.4182921;10.3663075
Tonstad skole;Trondheim - Tråante;54;47;47;63.3629661;10.3902424
Trondheim idrettsungdomsskole AS;Trondheim - Tråante;51;50;48;63.4425219;10.4580647
Trondheim Montessori;Trondheim - Tråante;*;*;*;63.439327;10.483033
Ugla skole;Trondheim - Tråante;52;52;52;63.3996116;10.338249
Åsheim ungdomsskole;Trondheim - Tråante;51;48;47;63.349804;10.339871
Tydal barne- og ungdomsskole;Tydal;*;*;*;63.041537;11.669671
Verdalsøra ungdomsskole;Verdal;50;47;48;63.79931;11.48314
Vuku barne- og ungdomsskole;Verdal;50;49;49;63.775678;11.739301
Botngård ungdomsskole;Ørland;48;45;43;63.764431;9.818357
Ørland ungdomsskole;Ørland;51;47;47;63.6878375;9.6569282
Brandsfjord barne- og ungdomsskole;Åfjord;*;*;*;64.188039;10.421431
Åset skole;Åfjord;*;*;*;63.9632751;10.2228609
Borgheim ungdomsskole;Færder;50;48;47;59.225349;10.4055403
Steinerskolen i Vestfold;Færder;49;*;*;59.2397727;10.3951564
Teigar ungdomsskole;Færder;51;*;*;59.2500467;10.4004271
Tjøme ungdomsskole;Færder;53;50;49;59.1225282;10.395976
Gjøklep ungdomsskole;Holmestrand;48;45;46;59.4825053;10.2975297
Hof skole;Holmestrand;50;47;46;59.5384492;10.0756699
Holmestrand Internasjonale montessoriskole Sti;Holmestrand;53;*;49;59.4899189;10.315035
Klokkerjordet skole;Holmestrand;49;*;46;59.5864884;10.2147766
Borre ungdomsskole;Horten;51;49;47;59.3802379;10.4506274
Holtan ungdomsskole;Horten;51;49;48;59.4121908;10.4658956
Orerønningen ungdomsskole;Horten;51;47;48;59.4324868;10.447827
Brunla ungdomsskole;Larvik;51;48;46;59.0033161;10.0212308
Frøy skole;Larvik;;;;59.0616058;10.0497878
Hedrum ungdomsskole;Larvik;49;46;44;59.0666066;10.0533717
Kongshaugen Kristne grunnskole;Larvik;43;*;*;59.103408;10.11312
Kvelde skole;Larvik;49;*;43;59.1908542;9.968291
Lardal skole;Larvik;50;50;*;59.3997571;9.9654572
Mellomhagen ungdomsskole;Larvik;52;49;48;59.0397516;10.0735266
Mesterfjellet skole;Larvik;50;44;45;59.0487291;10.0413863
Ra ungdomsskole;Larvik;51;49;49;59.0471314;9.9876393
Tjodalyng skole;Larvik;52;48;47;59.0548381;10.1273996
Andebu ungdomsskole;Sandefjord;50;48;47;59.3045427;10.1725073
Breidablikk ungdomsskole;Sandefjord;52;50;49;59.1449197;10.2290529
Bugården ungdomsskole;Sandefjord;50;47;47;59.1337372;10.187455
Moe skole;Sandefjord;53;55;56;59.1428777;10.1981584
Mokollen skole;Sandefjord;51;45;50;59.145127;10.211794
Ranvik ungdomsskole;Sandefjord;49;47;47;59.1170015;10.2132661
Skagerak International School Sti;Sandefjord;57;48;50;59.11993580000001;10.2311224
Stokke ungdomsskole;Sandefjord;51;48;47;59.220783;10.278311
Varden ungdomsskole;Sandefjord;50;45;46;59.121195;10.256286
Wang Ung Sandefjord AS;Sandefjord;53;53;55;59.1486448;10.1856084
Byskogen Kombinerte skole;Tønsberg;48;45;45;59.2824623;10.4182461
Elihu Kristne grunnskole;Tønsberg;*;*;*;59.268361;10.443658
Granly skole;Tønsberg;*;49;*;59.2905416;10.4164836
Kongseik ungdomsskole;Tønsberg;50;48;47;59.3048267;10.423368
Presterød ungdomsskole;Tønsberg;52;51;50;59.2697261;10.4610741
Revetal ungdomsskole;Tønsberg;50;47;48;59.3737581;10.2667746
Ringshaug ungdomsskole;Tønsberg;52;51;51;59.2862025;10.4858673
Skagerak International School, Tønsberg AS;Tønsberg;62;*;54;59.2705435;10.4057618
Tønsberg Montessori skole Sti;Tønsberg;51;50;44;59.3317231;10.4243069
Vear ungdomsskole;Tønsberg;48;45;46;59.2586115;10.3593225
Wang Tønsberg AS;Tønsberg;53;54;55;59.29309780000001;10.4147492
Danielsen ungdomsskule Frekhaug AS;Alver;*;*;*;60.5132754;5.2408397
Knarvik ungdomsskule;Alver;50;49;48;60.5508825;5.2843101
Lindås ungdomsskule;Alver;51;49;48;60.7345665;5.15984
Meland ungdomsskule;Alver;51;47;48;60.516504;5.2459936
Nordhordland Kristne grunnskole;Alver;*;*;*;60.5647041;5.2439089
Ostereidet ungdomsskule;Alver;51;47;46;60.628737;5.484351
Radøy ungdomsskule;Alver;47;46;47;60.637933;5.045275
Rossland skule;Alver;49;46;47;60.560905;5.053152
Askvoll skule;Askvoll;51;48;48;61.346895;5.091652
Bulandet skule;Askvoll;*;*;*;61.28464;4.619131
Gjelsvik skule;Askvoll;*;*;*;61.461907;5.36552
Erdal ungdomsskole;Askøy;49;46;47;60.44875;5.206152
Fauskanger barne- og ungdomsskule;Askøy;51;46;45;60.5244775;5.0294861
Kleppestø ungdomsskole;Askøy;48;46;46;60.41507;5.218943
Ravnanger ungdomsskole;Askøy;49;45;45;60.46287;5.15205
Aurland barne- og ungdomsskule;Aurland;*;*;*;60.9036125;7.1972214
Austevoll ungdomsskule;Austevoll;46;46;45;60.07992;5.248144
Årås skule;Austrheim;52;49;50;60.7797216;4.9366158
Bergen kompetansesenter for Læringsmiljø;Bergen;;;;60.38798929999999;5.3321641
Bergen Kristne grunnskole;Bergen;50;47;46;60.338955;5.320512
Bjørgvin montessoriskole;Bergen;54;47;47;60.34995;5.35078
Blokkhaugen skole;Bergen;52;49;49;60.467014;5.316579
Breimyra skole;Bergen;50;47;48;60.4581763;5.3670072
Foreningen Danielsen ungdomsskole Bergen;Bergen;54;55;53;60.3918854;5.335341
Garnes ungdomsskule;Bergen;53;48;49;60.4406278;5.461051
Gimle Oppveksttun skole;Bergen;52;51;50;60.3713767;5.3543322
Holen skole;Bergen;52;49;51;60.3897144;5.2833266
Hop Oppveksttun skole;Bergen;54;52;53;60.3240762;5.3437255
International School Of Bergen avd skole;Bergen;59;*;52;60.2948011;5.280665099999999
Kirkevoll skole;Bergen;57;54;53;60.2650217;5.3473818
Kjøkkelvik skole;Bergen;52;49;51;60.3738648;5.2309805
Kyrkjekrinsen skole;Bergen;51;47;49;60.4760506;5.3429962
Lynghaug skole;Bergen;51;49;49;60.357219;5.297816
Mjølkeråen skole;Bergen;49;48;48;60.4855031;5.2639743
Møllebakken skole;Bergen;*;*;*;60.3782656;5.3387771
Nattland skole;Bergen;54;52;54;60.337658;5.373347
Norges Toppidrettsgymnas ungdomsskole Bergen AS;Bergen;52;53;54;60.404026;5.3220874
Ny Krohnborg skole;Bergen;53;47;46;60.375081;5.3339891
Olsvik skole;Bergen;50;47;48;60.381833;5.214957
Ortun skole;Bergen;53;50;50;60.345344;5.2875916
Rothaugen skole;Bergen;54;52;52;60.4039842;5.3222057
Rudolf steinerskolen i Bergen skolen;Bergen;51;54;49;60.34367890000001;5.3430755
Rå skole;Bergen;53;53;50;60.2967993;5.3238264
Rådalslien skole;Bergen;52;50;50;60.2921405;5.3285719
Sandgotna skole;Bergen;52;47;49;60.362492;5.230964
Skranevatnet skole;Bergen;53;51;55;60.3006897;5.2848965
Slåtthaug skole;Bergen;53;49;50;60.3102026;5.3588716
St Paul skole;Bergen;55;53;50;60.3887239;5.3235193
Steinerskolen på Skjold Helseped Avdeling;Bergen;;;;60.31014080000001;5.3289912
Stiftelsen Davinci montessoriskole;Bergen;*;46;*;60.3499461;5.350781599999999
Stiftelsen montessoriskolen i Bergen;Bergen;50;48;45;60.3448126;5.2833966
Stiftelsen steinerskolen på Skjold;Bergen;50;47;42;60.31014080000001;5.3289912
Storetveit skole;Bergen;55;52;51;60.3464285;5.3472718
Ytrebygda skole;Bergen;53;49;51;60.2872372;5.2709739
Åstveit skole;Bergen;52;49;48;60.4557709;5.3105171
Fusa ungdomsskule;Bjørnafjorden;49;44;47;60.2461641;5.7402171
Nore Neset ungdomsskule;Bjørnafjorden;50;47;48;60.1795408;5.4171329
Os ungdomsskule;Bjørnafjorden;50;47;49;60.188518;5.4701845
Davik Oppvekst avd skule;Bremanger;*;*;*;61.88783340000001;5.5383995
Hauge Oppvekst avd skule;Bremanger;53;54;55;61.84093859999999;4.9601277
Svelgen Oppvekst avd skule;Bremanger;*;*;*;61.76624760000001;5.286304400000001
Bremnes ungdomsskule;Bømlo;50;48;47;59.792231;5.186836
Hillestveit skule;Bømlo;*;*;*;59.6006264;5.2097133
Moster skule;Bømlo;*;*;*;59.711201;5.347442
Lægreid skule;Eidfjord;*;*;*;60.463623;7.072878
Enge skule;Etne;49;50;50;59.66689;5.941024
Skånevik skule;Etne;48;46;51;59.731606;5.932692
Fedje skule;Fedje;*;*;*;60.7779467;4.7210729
Rimbareid barne- og ungdomsskule;Fitjar;54;52;51;59.9147336;5.3198938
Dingemoen skule;Fjaler;*;*;*;61.3538784;5.3995634
Våge skule;Fjaler;*;*;*;61.28278;5.03584
Gloppen ungdomsskule;Gloppen;*;*;*;61.7737185;6.2176319
Hyen skule;Gloppen;*;*;*;61.7371746;5.9169731
Brekke skule;Gulen;*;*;*;61.014168;5.45339
Byrknes skule;Gulen;*;*;*;60.901405;4.836937
Dalsøyra skule;Gulen;*;*;*;60.931588;5.146214
Eivindvik skule;Gulen;*;*;*;60.983854;5.089383
Hyllestad skule;Hyllestad;*;*;*;61.1699431;5.2947721
Bjordal skule;Høyanger;*;*;*;61.0676725;5.7998978
Høyanger skule;Høyanger;47;44;46;61.2217299;6.0750512
Lavik skule;Høyanger;*;*;*;61.104911;5.515048
Eikefjord barne- og ungdomsskule;Kinn;53;47;50;61.589865;5.463462
Florø ungdomsskule;Kinn;50;47;46;61.5977915;5.0191278
Vågsøy ungdomsskule;Kinn;51;47;52;61.941739;5.118206
Foreninga Norheimsund friskule;Kvam;*;*;*;60.3466143;6.1857316
Kvam ungdomsskule;Kvam;49;45;46;60.3876968;6.1946925
Strandebarm skule;Kvam;*;*;*;60.2559095;6.0141959
Hatlestrand barne- og ungdomsskule;Kvinnherad;*;*;*;60.058287;5.918047
Husnes ungdomsskule;Kvinnherad;*;*;46;59.8523778;5.7453029
Rosendal ungdomsskule;Kvinnherad;48;48;*;59.983364;6.0089177
Øyatun skule;Kvinnherad;*;48;*;59.7932081;5.7043093
Hafslo barne- og ungdomsskule;Luster;50;50;51;61.3137678;7.2018761
Luster ungdomsskule;Luster;49;50;49;61.404659;7.292015
Lærdalsøyri skule;Lærdal;48;45;42;61.1015215;7.4939525
Matre skule;Masfjorden;*;*;*;60.873552;5.584373
Nordbygda skule;Masfjorden;46;49;50;60.830695;5.28392
Sandnes skule;Masfjorden;*;*;*;60.792171;5.296686
Mo skule;Modalen;*;*;*;60.8174504;5.8095532
Danielsen ungdomsskule Osterøy AS;Osterøy;46;46;47;60.5067311;5.432543
Osterøy ungdomsskule;Osterøy;48;48;46;60.522925;5.509547
Samnanger ungdomsskule;Samnanger;49;48;46;60.3743486;5.7567251
Kaupanger skule;Sogndal;51;49;*;61.188162;7.224538
Kvåle skule;Sogndal;*;*;*;61.2318752;7.0805164
Leikanger ungdomsskule;Sogndal;55;53;51;61.185073;6.8165349
Sagatun skule avd skule;Sogndal;*;*;*;61.2057102;6.525644
Solund skule;Solund;49;49;*;61.0752123;4.8400659
Eid ungdomsskule;Stad;*;*;*;61.911993;5.9919537
Kjølsdalen montessoriskule SA;Stad;*;*;*;61.91747089999999;5.6257209
Selje skule;Stad;*;*;*;62.042713;5.350402
Stadlandet skule;Stad;53;53;51;62.111885;5.332945
Nordbygdo ungdomsskule;Stord;52;50;49;59.7995025;5.5115573
Nysæter ungdomsskule;Stord;*;*;*;59.7836288;5.3984576
Stord Kristne skule AS;Stord;*;*;*;59.7787658;5.484934700000001
Stord ungdomsskule;Stord;52;48;48;59.776083;5.4904172
Olden skule;Stryn;50;46;48;61.8338423;6.8084517
Stryn ungdomsskule;Stryn;48;46;47;61.9087452;6.7371925
Førde ungdomsskule;Sunnfjord;52;50;52;61.454666;5.8662245
Halbrend skule;Sunnfjord;52;50;51;61.449574;5.8369779
Naustdal skule;Sunnfjord;52;*;49;61.512436;5.7151693
Sande skule;Sunnfjord;51;50;*;61.325499;5.798629
Skei skule;Sunnfjord;*;50;50;61.578304;6.48906
Vassenden skule;Sunnfjord;48;49;47;61.4904407;6.1190922
Viksdalen skule;Sunnfjord;*;*;*;61.353341;6.117325
Sveio skule;Sveio;50;46;45;59.543927;5.3583
Tysnes skule;Tysnes;45;44;43;60.040914;5.537552
Hauso barne- og ungdomsskule;Ullensvang;*;*;*;60.374927;6.641993
Jondal skule;Ullensvang;55;52;51;60.2788164;6.2542504
Kinsarvik skule;Ullensvang;49;47;49;60.3735825;6.7196131
Odda ungdomsskole;Ullensvang;49;48;47;60.056882;6.5440517
Røldal skule;Ullensvang;*;*;*;59.832098;6.813295
Brakanes barne- og ungdomsskule;Ulvik;47;46;44;60.5681252;6.9108709
Dale skule;Vaksdal;*;*;*;60.5913709;5.8192078
Eksingedalen skule;Vaksdal;*;*;*;60.789463;6.114091
Feios skule;Vik;*;*;*;61.149316;6.765864
Flatbygdi skule;Vik;*;*;*;61.08131;6.579037
Granvin barne- og ungdomsskule;Voss;56;53;52;60.52749;6.722395
Voss ungdomsskule;Voss;49;47;49;60.6265741;6.4208265
Vossestrand barne- og ungdomsskule;Voss;48;49;46;60.781125;6.4860317
Danielsen barne- og ungdomsskule Sotra;Øygarden;50;46;48;60.352706;5.134551
Fjell ungdomsskule;Øygarden;51;48;49;60.3519417;5.1116964
Sund ungdomsskule;Øygarden;49;47;47;60.1957545;5.1028275
Tranevågen ungdomsskule;Øygarden;50;47;47;60.4095208;4.9946418
Øygarden ungdomsskule;Øygarden;50;47;47;60.516533;4.909741
Farnes skule;Årdal;52;49;52;61.3095059;7.801275
Tangen skule;Årdal;55;51;56;61.2431605;7.7127405
Aremark skole;Aremark;*;*;*;59.22587;11.6987897
Begby barne- og ungdomsskole;Fredrikstad;50;48;49;59.2158526;11.0101875
Borge ungdomsskole;Fredrikstad;49;46;47;59.2306597;11.0095265
Childrens International School Fredrikstad AS;Fredrikstad;64;56;*;59.2072675;10.9646607
Cicignon skole;Fredrikstad;51;49;48;59.2074881;10.952143
Gressvik ungdomsskole;Fredrikstad;50;47;48;59.2186428;10.9041273
Gudeberg barne- og ungdomsskole;Fredrikstad;55;51;51;59.2051783;10.9620669
Haugeåsen ungdomsskole;Fredrikstad;48;44;46;59.249465;10.984461
Kråkerøy ungdomsskole;Fredrikstad;53;50;48;59.1909071;10.9205487
Kvernhuset ungdomsskole;Fredrikstad;51;49;48;59.236261;10.934882
Råkollen skole avd Råkollen;Fredrikstad;;;;59.2144901;10.9734817
Steinerskolen i Fredrikstad;Fredrikstad;47;43;*;59.2664481;10.9976719
Vestbygda ungdomsskole;Fredrikstad;50;49;49;59.266678;10.773456
Wang Fredrikstad AS;Fredrikstad;52;52;51;59.21262729999999;10.9287082
Halden montessoriskole AS;Halden;*;*;*;59.1181095;11.396638
Risum ungdomsskole;Halden;50;47;46;59.1139387;11.4067665
Rødsberg ungdomsskole;Halden;50;48;46;59.1252161;11.3839973
Strupe ungdomsskole;Halden;*;*;*;59.1370973;11.3719591
Hvaler barne- og ungdomsskole;Hvaler;48;48;47;59.0706735;10.9431632
Askim ungdomsskole;Indre Østfold;51;48;48;59.5774965;11.1689045
Knapstad barne- og ungdomsskole;Indre Østfold;*;46;45;59.624726;11.02448
Mysen ungdomsskole;Indre Østfold;48;46;46;59.5499277;11.334248
Spydeberg ungdomsskole;Indre Østfold;50;49;48;59.6183325;11.0847135
Stiftelsen steinerskolen i Indre Østfold;Indre Østfold;*;*;*;59.58636889999999;11.1242289
Trøgstad ungdomsskole;Indre Østfold;50;*;*;59.638949;11.321599
Marker kommune - Marker skole;Marker;*;*;*;59.47818359999999;11.6577836
Buen barne- og ungdomsskole;Moss;*;*;*;59.41864;10.68474
Bytårnet skole;Moss;49;46;49;59.4324636;10.6683428
Children's International School Moss AS;Moss;59;49;50;59.43999299999999;10.669487
Hoppern skole;Moss;54;51;50;59.4342549;10.6282481
Nøkkeland skole;Moss;50;48;50;59.4690671;10.6927398
Rygge ungdomsskole;Moss;50;47;47;59.405771;10.69415
Steinerskolen i Moss Grunnskole/Adm;Moss;42;46;41;59.4340914;10.6583833
Torderød skole Adventistkirkens grunnskole;Moss;*;*;*;59.4348131;10.6391264
Verket skole;Moss;52;47;46;59.4443577;10.678576
Rakkestad ungdomsskole;Rakkestad;52;50;49;59.425493;11.351218
Råde kommune Råde ungdomsskole;Råde;50;49;49;59.35905;10.865638
Childrens International School Sarpsborg AS;Sarpsborg;57;48;51;59.29207650000001;11.0952356
Grålum ungdomsskole;Sarpsborg;50;47;49;59.293346;11.056547
Hafslund ungdomsskole;Sarpsborg;51;47;46;59.2723241;11.1432712
Kruseløkka ungdomsskole;Sarpsborg;52;48;48;59.285416;11.103439
Olavsborg Kristne skole;Sarpsborg;50;52;51;59.2915487;11.095209
Sandbakken barne- og ungdomsskole;Sarpsborg;49;49;46;59.248473;11.180163
Tindlund ungdomsskole;Sarpsborg;50;48;49;59.2682937;11.0470323
Varteig barne- og ungdomsskole;Sarpsborg;51;48;47;59.34941;11.18011
Kirkelund skole;Skiptvet;48;46;48;59.4711204;11.1718721
Våler ungdomsskole;Våler (Østfold);49;47;49;59.460774;10.8021891
