EnhetNavn;lat;lng
Arendal International School (Ais);58.432075;8.74147
Asdal skole;58.435024;8.694807
Birkenlund skole;58.470299;8.792936
Eydehavn skole;58.5095539;8.8692752
Flosta skole;58.552887;8.972653
Grimstad International School AS;58.337531;8.5807805
Hisøy skole 1-10 Skoler;0;0
Moltemyr skole;58.475933;8.764561
Myra skole;58.484573;8.732923
Nedenes skole;58.4131671;8.7094974
Nesheim skole;58.517195;8.781854
Roligheden skole Barne-/Ungdomstrinnet;58.455447;8.803997
Rykene oppvekstsenter avd skole;0;0
Sandnes skole;58.485221;8.875934
St. Franciskus skole;58.4577927;8.7659565
Stiftelsen steinerskolen i Arendal;0;0
Stinta skole barne- og Ungdomstrinnet;58.462557;8.7579788
Strømmen oppvekstsenter avd skole;0;0
Stuenes skole barne- og Ungdomstrinn;58.492494;8.847901
Birkeland skole;58.3208908;8.2415812
Engesland skole;58.52942;8.11796
Herefoss skole;58.519119;8.353069
Bygland skule;58.831722;7.798301
Byglandsfjord skule;58.666517;7.812333
Bykle barne- og ungdomsskule;59.3567449;7.3586337
Fjellgardane skule;59.5639832;7.3558341
Evje barneskule;58.590928;7.82098
Hornnes barneskule;58.567555;7.763544
Borhaug skole;58.0998155;6.585855
Farsund barneskole;58.0928756;6.7954073
Vanse skole;58.1045097;6.6946259
Gyland skole;58.37619;6.834008
Hidra skole;58.232993;6.554486
Sira skole;58.415733;6.660056
Sunde skole;58.294939;6.669102
Froland barneskole;58.512397;8.632294
Mykland skole;58.632134;8.294034
Abel skole;58.839058;9.094655
Eide skole;58.2691361;8.5048766
Fevik skole;58.381716;8.679816
Fjære barneskole;58.3698544;8.622854
Frivoll skole;58.3466;8.577291
Hesnes skole montessoriskolen i Grimstad;58.343523;8.618342
Holviga barneskole;58.324293;8.567059
Jappa skole;58.348336;8.588836
Landvik skole;58.3490726;8.5351871
Eiken skule;58.487218;7.19692
Kollemo skule;58.383446;7.215788
Iveland skole;58.456334;7.919944
Brattbakken skole;58.1786705;8.0918534
Fagerholt skole;58.1793204;8.0340622
Finsland skole;58.2736055;7.585993
Flekkerøy skole;58.078851;7.995235
Hellemyr skole;58.1474858;7.9357089
Hellemyr skole Kompetanse;58.1473505;7.9367722
Justvik skole;58.2039818;8.0300722
Karl Johans Minne skole;58.1482673;7.9558781
Karuss skole;58.1292669;7.9499914
Kringsjå skole;58.1269073;8.1132023
Kristiansand Internasjonale skole;58.156184;8.018051
Krossen skole;58.1534313;7.9547858
Krossen skole - Kompetanse;58.1539482;7.9535881
Langenes skole;58.078205;7.855842
Lovisenlund skole;58.1564012;8.0096264
Lunde skole;58.0967352;7.7711289
Mosby oppvekssenter skole;58.2203603;7.9239569
Nygård skole;58.089446;7.816021
Oasen skole Birkelid AS;0;0
Oasen skole Strømme AS grunnskole;0;0
Oasen skole Vågsbygd AS;0;0
Odderhei skole;58.1341882;8.076199
Presteheia skole;58.16641;8.0110319
Rosseland skole;58.134302;7.858253
Samfundets skole Sentrum;58.149636;7.993728
Sjøstrand skole;58.1019688;7.9759944
Slettheia skole;58.1331082;7.9614618
Solholmen skole;58.1479291;7.9696061
Stiftelsen steinerskolen i Kristiansand;0;0
Strømme skole;58.1529083;8.0814148
Tordenskjoldsgate skole;58.1501825;7.9925454
Torridal skole;58.2044254;7.927384
Tunballen skole;58.169123;7.858572
Vardåsen skole;58.1457111;8.0592278
Ve skole;58.207817;8.110378
Voiebyen skole;58.1004299;7.94905
Vågsbygd skole;58.1240155;7.9564345
Wilds Minne skole;58.1494345;8.0239556
Austerdalen skole;58.356228;7.033009
Feda skole;58.270544;6.817146
Kvinlog skule;58.5208294;6.9324785
Liknes skole;58.3132;6.965267
Vesterdalen skole;58.384629;6.957211
Justøy skole - montessoriskolen i Lillesand Sti;0;0
Lillesand kommune - Borkedalen skole;0;0
Lillesand kommune - Brentemoen skole;0;0
Lillesand kommune - Høvåg skole;0;0
Lillesand kommune - Tingsaker skole;0;0
Bjelland skole;58.383364;7.525785
Frøysland skole;58.037979;7.453255
Furulunden skole;58.024961;7.446878
Holum skole;58.096895;7.522335
Ime skole;58.033417;7.492194
Laudal skole;58.2475881;7.4982189
Nyplass skole;58.081044;7.312257
Oasen skole Mandal AS;0;0
Spangereid skole;58.0472581;7.1354322
Vigmostad skole;58.201928;7.337459
Øyslebø skole;58.1711322;7.5587268
Berge barneskole;58.1364648;7.068251
Byremo barneskule;58.4231356;7.4042642
Konsmo skole;58.2997439;7.3611687
Kvås skole;58.246447;7.185249
Stiftelsen Lyngdal Kristne grunnskole;0;0
Å barneskole;0;0
Årnes skole;58.1441175;7.0491482
Hope oppvekstsenter Avdeling skole;0;0
Risør barneskole;58.716532;9.219084
Søndeled skole;58.762854;9.081439
Sinnes skule;58.913905;6.884116
Tonstad skule;58.671944;6.721219
Tvedestrand barneskole;58.6293317;8.9374461
Valle skule;59.199743;7.532156
Vegårshei skule;58.75259;8.861058
Eikeland oppvekstsenter Avdeling skole;0;0
Kvarstein skole;58.237717;7.939567
Moseidmoen skole;58.2602514;7.9581254
Oasen skole Vennesla AS;0;0
Skarpengland skole;58.2946496;7.8526035
Vennesla skole;58.2759824;7.9724086
Åmli skule;58.772319;8.49638
Åseral barne- og ungdomsskule;58.61885;7.420922
Arnestad skole;59.802259;10.489535
Billingstad skole;59.8748103;10.4733436
Blakstad skole;59.8126073;10.4559585
Bondi skole;59.8241209;10.439695
Brusetkollen skole og ressurssenter;59.8522769;10.459565
Drengsrud skole;59.8291591;10.4030218
Folkestad skole;59.551606;10.465046
Frydenlund skole;59.7145879;10.5105053
Hagaløkka skole;59.8304179;10.422298
Heggedal skole;59.791514;10.4449062
Hofstad skole;59.8478507;10.4717594
Hvalstad skole;59.8604039;10.4654071
Hyggen skole;59.716743;10.3727492
Jansløkka skole;59.8489188;10.4435331
Mellom-Nes skole;59.8663559;10.4965892
Midtbygda skole;59.7452752;10.4125124
Nesøya skole;59.8692011;10.518609
Nærsnes skole;59.7550694;10.5049964
Rønningen skole;59.8182215;10.4287453
Slemmestad barneskole;59.7793429;10.4913742
Solberg skole;59.8043932;10.3936721
Spikkestad skole;59.7494921;10.3360997
Steinerskolen i Asker skole;0;0
Steinerskolen i Hurum Sti;0;0
Stiftelsen Asker International School;0;0
Stiftelsen Vollen montessoriskole;0;0
Sydskogen skole;59.7596789;10.4525153
Sætre skole;59.6761878;10.5393056
Tofte skole;59.5416449;10.554122
Torvbråten skole;59.7615417;10.4796738
Vardåsen skole;59.8194701;10.3792916
Vettre skole;59.8256635;10.4692543
Aurskog-Høland kommune - Aursmoen skole;0;0
Aurskog-Høland kommune - Bjørkelangen skole;0;0
Aurskog-Høland kommune - Bråte skole;0;0
Aurskog-Høland kommune - Haneborg skole;0;0
Aurskog-Høland kommune - Løken skole;0;0
Aurskog-Høland kommune - Rømskog skole;0;0
Aurskog-Høland kommune - Setskog oppvekstsenter - skole;0;0
Anna Krefting skole;59.9488103;10.5133311
Bekkestua barneskole;59.9239072;10.5897697
Blommenholm skole;59.8985044;10.5484334
Bryn og Hammerbakken skole Bryn skole;59.9205629;10.4950095
Eikeli skole;59.9375584;10.6044264
Eiksmarka skole;59.9480159;10.623141
Emma Hjorth skole;59.8964789;10.4873517
Evje skole;59.8987292;10.5148549
Grav skole;59.9284162;10.6084974
Gullhaug skole;59.9450763;10.4914306
Haslum skole;59.925008;10.570385
Hosle skole;59.9348123;10.584765
Høvik skole;59.9030106;10.5730786
Høvik Verk skole;59.893818;10.570734
Jar skole;59.920452;10.625571
Jong skole;59.8873598;10.5091761
Levre skole;59.9068397;10.5088718
Lommedalen skole;59.9607871;10.4737578
Lysaker skole;59.9096682;10.6173232
Løkeberg skole;59.9096897;10.5483153
Oksenøya skole;59.8984944;10.6108613
Oslo International School;59.9196503;10.5832691
Rykkinn skole;59.9299674;10.474445
Skui skole;59.9271543;10.4472109
Snarøya skole;59.888472;10.6230547
Stabekk skole;59.9154946;10.5932701
Steinerskolen i Bærum Grunnskoleundervisning;59.930249;10.60661
Stiftelsen Bærum montessoriskole;0;0
Storøya skole;59.893952;10.609953
Tanum skole;59.885377;10.477058
Bønsmoen skole;60.283946;11.17933
Dal skole;60.2541324;11.2001131
Eidsvoll Verk skole;60.293558;11.158345
Feiring skole;60.4924065;11.1542598
Langset skole;60.4035025;11.2399196
Råholt skole;60.2734831;11.1891728
Steinerskolen på Eidsvoll;60.286582;11.240897
Vilberg skole;60.3368658;11.2725894
Ås skole;60.329318;11.2151041
Kirkebygden barne- og ungdomsskole;59.7663725;11.1490756
Stranden skole;59.8229826;11.1663221
Ytre Enebakk skole;59.7208951;11.056512
Dal skole;59.7448728;10.6974616
Drøbak Montessori barneskole AS;0;0
Drøbak skole;59.6672255;10.6347553
Dyrløkkeåsen skole;59.6674657;10.6556839
Heer skole;59.6835312;10.6628232
Sogsti skole;59.6545812;10.6465293
Gjerdrum barneskole;60.0709621;11.0380711
Veståsen skole;60.0833663;10.9983622
Hurdal skole og kultursenter avd skole;0;0
Hurdal steinerskole;60.4085572;11.0510112
Bergerbakken skole;60.2384093;10.3549972
Toso skole;60.2378267;10.4247958
Asak skole;59.9930604;11.108926
Blaker skole;59.9904606;11.3721399
Brånås skole;59.9980929;11.0228659
Dalen skole;59.8762306;11.218963
Frogner skole;60.0254365;11.103104
Frydenlund skole og ressurssenter;0;0
Garderåsen skole;59.9422593;11.1535736
Gjellerås skole;59.9662106;11.0001965
Hovinhøgda skole;59.9321862;11.1419808
Kjeller skole;59.9742877;11.0399084
Kjellervolla skole;59.9649947;11.0442783
Oks friskole Sti;0;0
Riddersand skole;59.917226;11.169982
Sagdalen skole;59.950985;11.011879
Skjetten skole;59.9599672;10.9966942
Sten-Tærud skole;59.9955063;11.0405668
Sørum skole;60.0107612;11.236591
Sørumsand skole;59.979004;11.2334026
Vesterskaun skole;60.0214556;11.1654336
Vigernes skole;59.9551457;11.0717551
Volla skole;59.9650925;11.0441717
Åsenhagen skole;60.0088209;11.033627
Grua skole;60.2586759;10.6605932
Harestua skole;60.2110977;10.7130379
Lunner barneskole;60.2966283;10.5577044
Benterud skole;59.9171314;10.9493171
Finstad skole;59.9126299;10.965909
Fjellhamar skole;59.9385768;10.9781045
Kurland skole;59.9331299;11.0182876
Luhr skole;59.9434059;10.9554905
Lørenskog friskole;59.931378;10.929107
Rasta skole;59.920513;10.938593
Rudolf steinerskolen Lørenskog Sti;0;0
Solheim skole;59.9299351;10.9542929
Åsen skole;59.9243376;10.9652395
Eltonåsen skole;60.13167;11.014821
Kringler-Slattum skole;60.1713182;10.9951456
Maura skole;60.257005;11.04067
Preståsen skole;60.222015;11.026929
Auli skole;60.035082;11.360623
Fenstad skole;60.2156359;11.4020068
Fjellfoten skole;60.093182;11.474796
Framtun skole;60.060872;11.409578
Hoppensprett Akademiet Brårud AS;0;0
Neskollen skole;60.125442;11.3394039
Romerike International School Sti;0;0
Skogbygda skole;60.2283522;11.5155903
Østgård skole;60.120193;11.530076
Årnes skole;60.129706;11.476634
Berger skole;59.8375749;10.6773041
Bjørnemyr skole;59.8286715;10.6412046
Fjellstrand skole;59.7964325;10.6228268
Jaer skole;59.7906901;10.6901685
Myklerud skole;59.7465612;10.6138539
Nesoddtangen skole;59.854107;10.665036
Rudolf steinerskolen stiftelsen avd Undervisning;0;0
Elvetangen skole;60.1123359;10.8483702
Holumskogen skole;59.98366;10.938499
Rotnes skole;60.055015;10.873204
Slattum skole;60.0095081;10.9162318
Sørli skole;60.0580758;10.8526188
Ulverud skole;59.9962577;10.9211237
Bøleråsen skole;59.763816;10.856641
Finstad skole;59.7158004;10.8220352
Follo barne- og ungdomsskole;59.7659528;10.8440732
Greverud skole;59.768128;10.811089
Hans Nielsen Hauges grunnskole Follo AS;0;0
Hebekk skole;59.7251426;10.832854
Kolbotn skole;59.8126987;10.803732
Kråkstad skole;59.6777853;10.8856734
Langhus skole;59.7475074;10.8388317
Siggerud skole;59.7905422;10.8894795
Ski skole;59.7204986;10.8445851
Sofiemyr skole Holbergsvei;59.797734;10.8143635
Tårnåsen skole;59.8133221;10.8218247
Vassbonn skole;59.8116387;10.7851018
Vevelstadåsen skole;59.756978;10.8485339
Østli skole;59.7822257;10.8061144
Blystadlia skole;59.93098;11.0407883
Fjerdingby skole og Ressursavdeling;59.9262051;11.0636737
Løvenstad skole;59.9363659;11.0268006
Nordby skole;59.8655294;11.0945323
Rud skole;59.945426;11.0425244
Smestad skole;59.9072172;11.0916222
Algarheim skole;60.1449695;11.249831
Bakke skole;60.069306;11.1316971
Borgen skole;60.098577;11.220049
Døli skole;60.1377055;11.1678273
Gystadmarka skole;60.152274;11.191579
Hovin skole;60.14829;11.128555
Jessheim skole og ressurssenter;60.1473289;11.1738241
Mogreina skole;60.2281526;11.1662085
Nordkisa skole;60.190056;11.259017
Skogmo skole;60.1376293;11.2011916
Åreppen skole;60.08626;11.131884
Bjørlien skole;59.5980723;10.7071265
Brevik skole;59.5040925;10.6912817
Hølen skole;59.5419825;10.7382482
Son skole;59.519704;10.7005968
Vestby skole;59.5968072;10.7569116
Brønnerud skole;59.6645457;10.7512528
Nordby skole;59.724593;10.762042
Rustad skole;59.666043;10.8115878
Sjøskogen skole;59.7416273;10.7718757
Solberg skole;59.71914;10.795577
Steinerskolen i Ås;59.6865617;10.8116304
Åsgård skole;59.6637337;10.7866962
Akademiet realfagsskole Drammen AS;0;0
Aronsløkka skole;59.7624067;10.1289493
Bragernes skole;59.7485795;10.2260466
Brandengen skole;59.7292059;10.2227334
Danvik skole;59.7351845;10.1929065
Fjell skole;59.7197261;10.2238158
Gulskogen skole;59.73999;10.17048
Hallermoen skole;59.7283256;10.1467357
Konnerud skole;59.7217704;10.133261
Krokstad skole;59.758275;10.0004039
Mjøndalen skole;59.7477459;10.0124481
Norlights montessoriskole Drammen AS;0;0
Rosendal skole;59.7501414;10.0259396
Rødskog skole;59.7450104;10.1598414
Skoger skole;59.6852526;10.2509535
Solberg skole;59.763357;10.077614
Steinberg skole;59.758595;9.9725525
Stenseth skole;59.760384;10.035932
Tangen skole;59.684105;10.355714
Tømmerås skole;59.605797;10.402626
Vestbygda skole;59.6959739;10.1662574
Øren skole;59.7524187;10.1693938
Åsen skole;59.7327693;10.0204997
Åskollen skole;59.7134237;10.2604475
Åssiden skole;59.752116;10.144363
Flesberg skole;59.8385947;9.5721763
Flå skole;63.19729;10.315317
Gol skule;60.7052273;8.9369401
Hemsedal skole;60.862643;8.561334
Geilo barne- og ungdomsskole;60.53399;8.21917
Hallingskarvet skole;60.6154819;8.2980795
Røyse skole;60.0915234;10.2196871
Sundvollen oppvekstsenter Avdeling skole;0;0
Tyrifjord barne- og ungdomsskole;60.068448;10.171658
Vik skole;60.0791825;10.2813968
Efteløt skole;59.550077;9.811701
Gamlegrendåsen skole;59.6507825;9.664883
Hvittingfoss barne- og ungdomsskole;59.489087;10.00927
Kongsberg steinerskole AS;0;0
Kongsgårdmoen skole;59.6270015;9.6470317
Madsebakken skole;59.668946;9.673686
Raumyr skole;59.675182;9.654772
Skavanger skole;59.6820409;9.6281613
Stiftelsen Kongsberg International School;0;0
Wennersborg skole;59.6532015;9.6398211
Krødsherad skole;60.1241455;9.7871805
Egge skole;59.8142403;10.2137001
Gullaug skole;59.7510794;10.2827686
Hallingstad skole;59.810284;10.2696538
Hegg skole;59.7827027;10.243788
Heia skole;59.8210699;10.3290309
Hennummarka skole;59.8213502;10.2799383
Høvik skole;59.760162;10.2396001
Oddevall skole;59.862389;10.218061
Sylling skole;59.89162;10.292531
Buskerud skole;59.896305;9.889189
Enger skole;59.891921;9.927209
Stalsberg skole;59.922573;9.963959
Sysle skole;59.9917586;9.9157845
Vikersund skole;59.9734617;9.9926433
Nesbyen skole;0;0
Rødberg skole;60.26882;8.944285
Uvdal skole;60.270674;8.744945
Benterud skole;60.159879;10.249777
Discovery International School AS;0;0
Hallingby skole;60.2687919;10.1792931
Helgerud skole;60.1849;10.1955
Nes skole;60.565726;9.986816
Ringerike Montessori AS;0;0
Ringerike steinerskole Sti;0;0
Sokna skole;60.2426759;9.9310896
Steinsfjorden montessoriskole SA;0;0
Tyristrand skole;60.085273;10.102012
Ullerål skole;60.18133;10.267012
Vang skole;60.1744603;10.3226608
Veien skole;60.1755077;10.2328555
Veggli skole;60.041426;9.150187
Eggedal skole;60.2399523;9.3563832
Nerstad skole;60.0019706;9.7366144
Prestfoss skole;60.041829;9.631114
Darbu barneskole;59.7000285;9.8000786
Hokksund barneskole;59.766659;9.9261805
Ormåsen barneskole;59.7545665;9.8223181
Røren barneskole;59.7706532;9.8797307
Skotselv skole;59.8493134;9.8799913
Vestfossen barneskole;59.729771;9.868933
Nedre-Ål skule;60.628525;8.550031
Nordbygdene skule;60.70158;8.486949
Torpo skule;60.665291;8.721256
Alta Kristne grunnskole SA;0;0
Bossekop skole;69.9601438;23.2423801
Elvebakken skole;69.9710749;23.3647513
Gakori skole;69.9520893;23.2214782
Haldde montessoriskole SA;0;0
Kaiskuru skole;69.9560231;23.3732165
Komsa skole;69.973064;23.269944
Leirbotn skole;70.120693;23.394276
Rafsbotn skole;70.0187733;23.5296252
Saga skole;69.9626011;23.4273394
Talvik skole;70.0419009;22.9433702
Tverrelvdalen skole;69.932999;23.432776
Øvre Alta skole;69.9273941;23.2660226
Berlevåg skole;70.8610772;29.0918586
Båtsfjord skole;70.63308;29.717738
Boftsa oppvekstsenter Avdeling skole;0;0
Deanu Sàmeskuvla;70.19649;28.1689365
Tanabru skole;70.197898;28.166543
Gamvik skole;71.063754;28.241559
Mehamn skole;71.03507;27.851265
Kautokeino skole;69.013813;23.046197
Baksalen skole;70.657753;23.7038682
Fjordtun skole;70.634536;23.6849732
Forsøl skole;70.7214996;23.7964221
Fuglenes skole;70.674135;23.6652845
Kokelv oppvekstsenter;70.6121636;24.6414087
Kvalsund skole;70.4985035;23.9736593
Reindalen skole;70.6915962;23.7007339
Breivikbotn skole;70.591564;22.302993
Hasvik skole;70.4889359;22.1502253
Sørvær oppvekstsenter Avdeling skole;0;0
Karasjok grunnskole;69.4693965;25.5146275
Kjøllefjord skole;70.9449785;27.3576028
Høgtun skole;70.250454;22.352506
Havøysund skole;70.9988847;24.6573876
Honningsvåg skole;70.97842;25.977887
Billefjord Sjøsamiske oppvekstsenter Avdeling skole;0;0
Lakselv barneskole;70.0486892;24.9676467
Bugøynes oppvekstsenter avd skole;0;0
Hesseng flerbrukssenter avd skole;0;0
Kirkenes skole;69.723396;30.0582691
Pasvik skole;69.454864;30.054626
Sandnes og Bjørnevatn skole;69.6687274;29.972181
Unjargga Oahppogaldu Nesseby oppvekstsenter avd skole;0;0
Vadsø barne- og kulturskole avd skole;0;0
Vadsø kommune Vestre Jakobselv oppvekstsenter avd skole;0;0
Vardø kommune grunnskole;0;0
Alvdal barneskole;62.1043282;10.6428324
Dovre barneskole;62.0778772;9.1257012
Eidskog montessoriskole SA;0;0
Magnor skole;59.9452511;12.1707863
Skotterud skole;59.9855247;12.1361543
Elverum kommune - Ydalir skole;0;0
Frydenlund skole;60.8800328;11.5696426
Hanstad skole;60.8620607;11.5699666
Hernes skole;60.9262174;11.6371196
Lillemoen skole;60.825084;11.627237
Søbakken skole;60.8982018;11.5681366
Sørskogbygda skole;60.9424328;11.7805875
Vestad skole;60.8859957;11.5398856
Engerdal barne- og ungdomsskole;61.8190077;11.9207648
Etnedal skule;60.9260411;9.6335265
Folldal skole;62.1320915;9.9845768
Fjerdum skole;61.233614;10.208153
Follebu skole;61.2213303;10.2793651
Forset skole;61.2012779;10.1470106
Biri barneskole;60.9535075;10.6082369
Blomhaug skole;60.7866202;10.6494705
Fredheim skole;60.8114663;10.6742339
Gjøvik skole;60.7947283;10.6847402
Grande skole;60.8107427;10.5851946
Kopperud skole;60.769142;10.6759288
Lundstein skole;60.8427806;10.6631632
Snertingdal skole;60.8752516;10.4038092
Steinerskolen Gjøvik-Toten;60.7882821;10.6996869
Vindingstad skole;60.7739847;10.6983093
Bjoneroa skole;60.5162846;10.2958473
Brandbu barneskole;60.4225035;10.5131429
Fredheim skole;60.3907873;10.4633082
Jaren skole;60.3927191;10.5779236
Sanne skole;60.367119;10.5320166
Trintom skole;60.3597266;10.5866814
Grue barne- og ungdomsskole;60.450287;12.054574
Greveløkka skole;60.8027511;11.0657521
Hamar Montessori skole Sti;0;0
Ingeberg skole;60.8279967;11.1303065
Lovisenberg skole;60.7955029;11.1644969
Lunden skole;60.8381517;11.1966283
Prestrud skole;60.8078898;11.0353781
Ridabu skole;60.802637;11.1361794
Rollsløkken skole;60.8005328;11.0841394
Solvang skole;60.808624;11.08844
Storhamar skole;60.8013624;11.0502486
Austmarka barne- og ungdomsskole;60.1007697;12.323332
Brandval skole;60.321062;12.006254
Finnskogen montessoriskole Ba;0;0
Kongsvinger montessoriskole SA;0;0
Langeland skole;60.1985647;11.9918973
Marikollen skole;60.1911318;11.9718448
Roverud skole;60.2581124;12.0630206
Vennersberg skole;60.1759191;12.0270268
Lesja skule;62.1171537;8.8543079
Lesjaskog skule;62.2312113;8.3802796
Engesvea barne- og ungdomsskole;61.0948726;10.4834214
Hammartun skole;61.1125741;10.4630517
Jørstadmoen skole;61.1544956;10.3911893
Nordre Ål skole;61.1326354;10.4644826
Røyslimoen skole;61.0957844;10.5092306
Stiftelsen Lillehammer steinerskole;0;0
Søre Ål barneskole;61.0937316;10.4762316
Vingar skole;61.1081794;10.4276023
Vingrom skole;61.0480805;10.4322006
Loar skule;61.8388169;8.5605566
Hedemarken friskole;60.8010225;11.3037854
Jønsrud skole;60.8699094;11.3674116
Lund skole;60.8313485;11.3125381
Østvang skole;60.8229989;11.3532734
Ådalsbruk skole;60.7879169;11.3286193
Nord-Aurdal barneskole;60.9879904;9.2433618
Valdres montessoriskule SA;0;0
Barhaug skole;61.5985663;9.7297053
Kvam skole;61.6662054;9.7025733
Skåbu oppvekstsenter avd skole;0;0
Sødorp skole;61.5910945;9.76476
Mo barne- og ungdomsskole;60.423664;11.642413
Sand sentralskole;60.390831;11.534826
Nordre Land kommune 0-24 Torpa barne- og ungdomsskole;0;0
Nordre Land kommune Dokka barne- og ungdomsskole;0;0
Os skole;62.497186;11.23704
Berger skole;61.89333;11.076386
Fagertun skole;61.720727;11.195858
Fåvang skole;61.4554209;10.1994043
Ringebu skole;61.5334295;10.143338
Venabygd montessoriskole;61.593842;10.0498864
Brøttum barne- og ungdomsskole;61.0281513;10.5567884
Fagerlund skole;60.8942643;10.9406497
Gaupen skole;60.8720405;10.7800238
Hempa skole;60.898477;10.9584208
Kirkekretsen skole;60.920429;10.906621
Kirkenær skole;60.8420306;11.021733
Kylstad skole;60.8737667;11.04113
Lismarka skole;61.0719002;10.6276989
Moelv skole;60.9285917;10.6943234
Mørkved skole;60.8702301;10.9592395
Nes barneskole;60.801537;10.842971
Stavsberg skole;60.8192418;11.0553896
Åsen skole;61.026777;10.753892
Heidal skule;61.7510542;9.3222085
Otta skole;61.7737905;9.5417719
Skjåk barne- og ungdomsskule;61.8836922;8.2628386
Arstad skole;60.7699303;11.1139698
Breidablikk skole;60.7767511;11.2419135
Hoberg skole;60.7718533;11.1347856
Solvin skole;60.7331954;11.26021
Stange skole;60.7189799;11.1915072
Steinerskolen på Hedemarken avd grunnskolen Ottestad;0;0
Tangen skole;60.6166324;11.2590873
Vallset skole;60.6810849;11.3422031
Koppang skole;61.5672189;11.0631423
Fryal skole;60.6830283;10.3548711
Odnes skole;60.803307;10.169531
Bagn skule;60.8235072;9.548629
Hedalen barne- og ungdomsskole;60.6046541;9.7420634
Midtbygda og Harpefoss skule;61.5595031;9.9488546
Glommasvingen skole;60.257786;11.67013
Tolga skole;62.4114022;10.9966047
Vingelen skole;62.414454;10.866655
Innbygda skole;61.314827;12.266887
Jordet skole;61.415579;12.129255
Trysil montessoriskole SA;0;0
Fåset skole og barnehage avd skole;0;0
Kvikne skole;62.5610682;10.3238832
Tylldalen skole;62.127633;10.799686
Tynset barneskole;62.2725088;10.7776553
Vang barne- og ungdomsskule;61.130671;8.592836
Vestre Slidre skule;61.0875496;8.9835312
Bøverbru skole;60.6648695;10.6813991
Korta skole;60.7203979;10.627863
Raufoss skole;60.7237757;10.599855
Reinsvoll skole;60.6776689;10.6257063
Thune skole;60.6162323;10.6219342
Vågåmo skule;61.8719468;9.0972111
Våler barne- og ungdomsskole;60.6737368;11.8298135
Hoffsvangen skole;60.6843061;10.8414213
Kapp skole;60.7118404;10.8778946
Kolbu skole;60.6411946;10.7254136
Nordli skole;60.741779;10.761918
Stange skole;60.6359564;10.9109152
Toten montessoriskole;60.5976576;10.7344939
Totenviken skole;60.6451066;11.0050186
Vilberg skole;60.6486598;10.8299005
Aurvoll skole;61.3142721;10.3070694
Solvang skole;61.2375575;10.4421873
Lidar skule;61.2024225;8.9744619
Rogne skule;61.0817499;9.1276716
Åmot Barne og ungdomsskole;61.1402518;11.3679599
Åmot montessoriskole SA;0;0
Solør montessoriskole;60.575068;12.071309
Åsnes barneskole;60.6111663;12.0181214
Gossen barne- og ungdomsskole avd skole;0;0
Julsundet skole;62.7724432;6.9931739
Aure barne- og ungdomsskole;63.268008;8.5344466
Tustna barne- og ungdomsskole;63.158431;7.963703
Bodalen friskole;63.0122249;7.5860358
Bruhagen barneskole;63.0492035;7.6377694
Kårvåg barneskole;63.0174751;7.4725179
Eidsdal skule;62.2542451;7.1601384
Stordal skule;62.382125;7.007992
Valldal skule;62.301908;7.259656
Giske skule;62.5044883;6.0508172
Godøy skule;62.4725098;6.0226814
Valderøy barneskule;62.504644;6.130757
Vigra skule;62.572816;6.115895
Angvik skule;62.897063;8.08902
Batnfjord skule;62.8926676;7.677178
Torvikbukt skule SA;0;0
Brattvåg barneskule;62.6007655;6.4412866
Eidet skule;62.546373;6.59721
Grytastranda montessoriskule;62.533667;6.354615
Haramsøy barne- og ungdomsskule;62.6441541;6.2605425
Hildre montessoriskule SA;0;0
Søvik barneskule;62.54656;6.285734
Bigset skule;62.357025;5.967164
Brandal friskule;62.401344;6.006172
Hareid skule;62.370608;6.02457
Hjørungavåg skule;62.346338;6.058862
Bergsøy skule;62.3346064;5.647269
Einedalen skule;62.3344917;5.6877307
Leikanger skule;62.236633;5.790929
Moltu skule;62.2949535;5.6355735
Møre barne- og ungdomsskule;62.2784638;5.8073176
Nerlandsøy skule;62.3409717;5.5855062
Stokksund barne- og ungdomsskule;62.3030602;5.7301058
Bud skule;0;0
Eide barneskole;62.917977;7.4455997
Haukås skole;62.8545819;7.1687721
Hustad skole;62.96058;7.115704
Jendem skole;62.788154;7.0211707
Sylte skule;62.829098;7.234932
Tornes skule;62.843536;7.032445
Allanengen skole;63.1147179;7.7286869
Bjerkelund skole;63.086943;7.8820169
Dale barneskole;63.123536;7.7898142
Folkeparken skole;63.1222598;7.7505026
Frei skole;63.0369843;7.7845924
Innlandet skole;63.103313;7.7299176
Nordlandet barneskole;63.1077588;7.7561735
Rensvik skole;63.095868;7.813852
Bolsøya skole;62.7305792;7.3213494
Eidsvåg barne- og ungdomsskole;62.778045;8.074184
Eresfjord barne- og ungdomsskule;62.6617782;8.1148537
Kleive oppvekstsenter skole;0;0
Kvam skole;62.7370253;7.1016847
Kviltorp skole;62.7437216;7.233375
Langmyra skole;62.7430637;7.1812964
Midsund skule;62.6815325;6.6703845
Molde friskole;62.7373422;7.1218724
Nordbyen skole;62.7551827;7.2228338
Sellanrå skole;62.7391966;7.1440242
Skjevik barne- og ungdomsskole;62.7868336;7.532336
Tøndergård skole og ressurssenter;62.743326;7.208114
Vistdal oppvekstsenter skole;0;0
Vågsetra barne- og ungdomsskole;62.7139085;7.4253729
Årølia skole;62.755497;7.291231
Innfjorden friskole SA;0;0
Isfjorden skole;62.577077;7.788514
Måndalen barne- og ungdomsskule;62.5309903;7.4358184
Åfarnes barne- og ungdomsskole;62.6588821;7.5034956
Åndalsnes barneskole;62.563204;7.6874949
Gursken oppvekstsenter avd skule;0;0
Kvamsøy barne- og ungdomsskule;62.2006971;5.4140455
Larsnes skule;62.2088599;5.5739374
Smøla barneskole;63.4600345;8.0093286
Geiranger skule;62.099674;7.204527
Ringstad skule;62.3074767;6.9358098
Sunnylven skule;62.0847895;6.8706648
Langevåg skule;62.4391371;6.2133564
Rørstadmarka skule;62.4310488;6.265395
Solevåg skule;62.42722;6.31145
Gjøra oppvekstsenter avd skule;0;0
Løykja skole;62.652574;8.695233
Sande skole;62.670052;8.5906274
Tredal skole;62.6667258;8.5331818
Ålvundfjord skule;62.840684;8.518549
Bøfjorden og Bæverfjord oppvekstsenter avd Bæverfjord skule;0;0
Mo oppvekstsenter avd skule;0;0
Surnadal barne- og ungdomsskule;62.98125;8.716892
Todalen og Stangvik oppvekstsenter;62.90216;8.597267
Aure barneskule;62.3949467;6.5975492
Hundeidvik privatskule AS;0;0
Sørestranda skule;62.383375;6.550883
Velledalen montessoriskule AS;0;0
Meisingset oppvekstsenter avd skole;0;0
Straumsnes barne- og ungdomsskole;63.0357876;8.0393527
Tingvoll barne- og ungdomsskole;62.9143256;8.1970924
Haddal skule;62.282304;5.875451
Hasund skule;62.3167008;5.8433604
Ulstein skule;62.356774;5.826688
Ulsteinvik barneskule;62.344812;5.850679
Fiskå skule;62.100773;5.566612
Myklebust skule;62.087657;5.740295
Åheim skule;62.036029;5.533243
Fiksdal friskule SA;0;0
Helland barneskule;62.616256;7.091351
Tomrefjord skule;62.602138;6.929263
Tresfjord Enspire skule;62.5194794;7.1274426
Vike montessoriskule SA;0;0
Bratteberg skule;62.1497344;6.1124774
Dalsfjord skule;62.112963;5.938836
Folkestad skule;62.1178365;6.0316235
Hornindal skule;61.976545;6.51911
Mork skule;62.168956;6.025039
Ulvestad barneskule AS;0;0
Øyra skule;62.1482881;6.0789836
Dalane skule;62.1593822;6.2305895
Hovden skule;62.185468;6.081063
Sæbø skule;62.2068952;6.4742635
Vartdal skule;62.298176;6.091452
Velle skule;62.1953488;6.1277953
Åmås friskule;62.1819452;6.1963739
Aspøy skole;62.4721255;6.1460544
Blindheim barneskole;62.43781;6.357705
Ellingsøy barne- og ungdomsskole;62.493174;6.19572
Emblem skule;62.437497;6.45461
Flisnes skole;62.4302661;6.4139077
Harøy skule;62.77158;6.457897
Hatlane skole;62.460655;6.271124
Hessa skole;62.458454;6.130492
Larsgården skole;62.4747654;6.239191
Lerstad barneskole;62.468511;6.307165
Møre barne- og ungdomsskule Skodje AS;0;0
Skodje barne- og ungdomsskole avd barneskole;0;0
Spjelkavik barneskole;62.460561;6.369287
Steinerskolen Ålesund;62.462039;6.266049
Stette friskule SA;0;0
Stiftelsen Møre barne- og Ungdomsskule, Ålesund;0;0
Stokke og Vik skole;62.4954081;6.3265649
Valle skule;62.47841;6.661038
Volsdalen skole;62.4715411;6.1911927
Ørskog skule;62.4776723;6.8200132
Aalesund International School Sti;0;0
Åse skole;62.4637209;6.3304081
Bjarnetjønna skole;66.016541;12.6157037
Søvik oppvekstsenter avd skole;0;0
Andenes skole;69.3160729;16.1287824
Bleik og Omegn Montessori Skolelag;0;0
Risøyhamn skole;68.968579;15.636839
Åse montessoriskole;69.015781;15.807296
Beiarn barne- og ungdomsskole;66.916132;14.768424
Bindalseidet skole SA;0;0
Terråk skole;65.086116;12.367723
Alberthaugen skole;67.274059;14.42673
Alstad barneskole;67.274192;14.481268
Aspåsen skole;67.278264;14.3814433
Bodøsjøen skole;67.2705576;14.4407984
Grønnåsen skole;67.28083;14.46653
Hunstad barneskole;67.28481;14.5395746
Kjerringøy oppvekstsenter avd skole;0;0
Løpsmark skole;67.3104829;14.4512237
Misvær oppvekstsenter avd skole;0;0
Mørkvedbukta skole;67.2795874;14.5648885
Mørkvedmarka skole;67.2910513;14.5884512
Rønvik skole;67.2963286;14.4186545
Saltstraumen skole;67.235808;14.624071
Saltvern skole;67.2891967;14.4311788
Skaug oppvekstsenter avd skole;0;0
Skjerstad oppvekstsenter avd skole;0;0
Skolen i Væran avd skole;0;0
St Eysteins skole;67.2757827;14.3659777
Tverlandet skole;67.2972568;14.7279171
Østbyen skole;67.2803239;14.4093963
Brønnøysund barneskole;65.484279;12.222487
Hilstad Barne-Og ungdomsskole;65.409529;12.54483
Eidet skole;68.73484;14.596156
Steine skole;68.6178734;14.4621788
Straume skole;68.688083;14.47901
Dønna barne- og ungdomsskole;66.107939;12.490327
Løkta oppvekstsenter avd skole;0;0
Nord-Dønna montessoriskole;66.175489;12.544201
Evenes skole;68.4830049;16.8883717
Sulitjelma skole;67.134484;16.069571
Valnesfjord skole;67.295143;15.177556
Vestmyra skole;67.2643815;15.3770206
Flakstad barne- og ungdomsskole;68.0918472;13.2295923
Vikten skole;68.138748;13.312834
Inndyr skole avd skole;0;0
Nygårdsjøen oppvekstsenter avd skole;0;0
Sandhornøy skole;67.1360206;14.0788274
Sørarnøy skole og barnehage avd skole;0;0
Grane barne- og ungdomsskole;65.5344215;13.4001263
Drag skole;68.040368;16.08117
Hamarøy montessoriskole;68.0233458;15.3490422
Innhavet oppvekstsenter avd skole;0;0
Oppeid skole;68.083115;15.6237288
Innlandet skole;68.557258;15.217526
Melbu skole;68.503361;14.803934
Sandnes skole;68.584484;14.909814
Stokmarknes skole;68.5664881;14.9067493
Bleikvassli skole;65.916347;13.807486
Finneidfjord skole;66.185903;13.791702
Hemnes sentralskole;66.225854;13.607253
Korgen sentralskole;66.077643;13.808271
Herøy skole;65.97647;12.275334
Leirfjord barne- og ungdomsskole;66.065339;12.938717
Konsvik oppvekstsenter avd skole;0;0
Kvarøy oppvekstsenter skole;0;0
Lovund skole;66.3665553;12.3577187
Onøy Lurøy oppvekstsenter avd skole;0;0
Sleneset oppvekstsenter skole;0;0
Lødingen skole;68.4091271;15.9757767
Vestbygd skole;68.347844;15.508176
Bolga oppvekstsenter avd skole;0;0
Enga skole;66.7843739;13.5319175
Glomfjord skole;66.8177981;13.9584396
Halsa skole;66.742114;13.578547
Meløy oppvekstsenter avd skole;0;0
Neverdal Enspire skole AS;0;0
Spildra skole;66.8633455;13.7266786
Sørvågen skole;67.889407;13.016659
Ankenes skole;68.417451;17.383271
Ballangen skole;68.3391075;16.825597
Beisfjord barneskole;68.3773915;17.6030129
Bjerkvik skole;68.552259;17.553636
Frydenlund skole;68.4412587;17.4152958
Håkvik barneskole;68.4039596;17.3097678
Kjøpsvik skole;68.0994642;16.3864997
Narvik montessoriskole;68.412662;17.439285
Skistua barneskole;68.4350025;17.4415526
Skjomen skole;68.246395;17.412057
Nesna skole avd Nesna;0;0
Båsmo barneskole;0;0
Dalsgrenda montessoriskole SA;0;0
Frikult grunnskole AS;0;0
Gruben barneskole;0;0
Grønfjelldal montessoriskole SA;0;0
Hauknes skole;0;0
Lyngheim skole;0;0
Selfors barneskole;0;0
Skonseng skole;0;0
Storforshei barne- og ungdomsskole;0;0
Utskarpen barne- og ungdomsskole;0;0
Ytteren skole;0;0
Jektvik skole;66.6247423;13.2908386
Rødøy skole;66.6614026;13.0760148
Tjongsfjord skole;66.6980997;13.4192097
Øresvik skole;66.462173;13.225498
Røst barne- og ungdomsskole;67.517863;12.1154871
Rognan barneskole;67.0972862;15.3915577
Røkland skole grunnskolen;66.991539;15.328002
Holmstad skole;68.719936;15.153773
Jennestad montessoriskole;68.750572;15.302273
Lamarka skole;68.685256;15.3884082
Maurnes skole;68.7536666;15.4699294
Sigerfjord skole;68.646686;15.507666
Sortland barneskole;68.6965901;15.404514
Strand skole;68.697788;15.4518
Laskestad skole;67.926681;15.020935
Steigenskolen Leines;67.735888;14.81105
Steigenskolen Leinesfjord;67.7770618;15.0163165
Steigenskolen Nordfold;67.762179;15.223982
Vik skole;65.313092;12.1685992
Røsvik oppvekstsenter skole;0;0
Straumen skole;67.344047;15.5931639
Husøy skole;66.5025626;12.0945195
Elsfjord montessoriskole SA;0;0
Granmoen skole;65.977084;13.215423
Kulstad skole;65.8664742;13.1998603
Mosjøen skole;65.836467;13.2043304
Olderskog skole;65.8232269;13.2199852
Vega barne- og ungdomsskole;65.675159;11.951084
Ballstad skole;68.084381;13.538986
Buksnes skole;68.1186061;13.5555038
Bøstad skole;68.239284;13.751981
Eltoft montessoriskole AS;0;0
Fygle skole;68.145669;13.648834
Leknes skole;68.146443;13.619627
Opdøl montessoriskole Barne og ungdomsskole;68.186768;13.652838
Svarholt skole;68.137549;13.837688
Vevelstad sentralskole;65.701312;12.440747
Værøy skole;67.666406;12.6875706
Gimsøy skole;68.32003;14.1996
Kabelvåg skole;68.2167969;14.4662476
Laukvik skole;68.39038;14.47026
Laupstad skole;68.356392;14.741293
Strauman oppvekstsenter;68.285827;14.347396
Svolvær skole;68.238891;14.5596784
Ørsnes privatskole;68.200513;14.395262
Alsvåg skole;68.905345;15.265138
Myre skole;68.9159106;15.0859659
Hattfjelldal oppvekstsenter avd skole;0;0
Abildsø skole;59.8817366;10.8264847
Ammerud skole;59.9650676;10.8744148
Bakås skole;59.937376;10.9107874
Bekkelaget skole;59.8825292;10.7849609
Berg skole;59.9495841;10.7417224
Bestum skole;59.9237086;10.654051
Bjølsen skole;59.9397534;10.7574078
Bjørndal skole;59.8251415;10.8369881
Bjørnsletta skole;59.928654;10.6425735
Bogstad skole;59.9609792;10.6362407
Bolteløkka skole;59.9276451;10.7349896
Bryn skole;59.9144452;10.8230093
Brynseng skole;59.9087469;10.8110299
Bygdøy skole;59.9056108;10.6771206
Bøler skole;59.8838953;10.8491743
Disen skole;59.94825;10.7946777
Ekeberg skole;59.8944652;10.7846357
Ellingsrudåsen skole;59.9355404;10.9208346
Fernanda Nissen skole;59.946972;10.769624
Furuset skole;59.9392824;10.8913777
Gamlebyen skole;59.9065777;10.7710763
Godlia skole;59.9072803;10.8468375
Grefsen skole;59.9546418;10.7740032
Grindbakken skole;59.9680628;10.6470207
Grorud skole;59.958356;10.88285
Grünerløkka skole;59.9263962;10.7620568
Hallagerbakken skole;59.8410808;10.7918545
Hans Nielsen Hauge grunnskole Oslo;59.9621385;10.6912239
Hasle skole;59.9219586;10.7897916
Haugen skole;59.9477943;10.9052859
Haugenstua skole;59.9538383;10.9202333
Haukåsen skole;59.9233745;10.863445
Holmen skole;59.953213;10.6753914
Huseby skole;59.9457881;10.6535147
Høybråten skole;59.9467247;10.9267087
Høyenhall skole;59.8991779;10.81295
Ila skole;59.9275604;10.7456942
Jeriko skole;59.933752;10.8860758
Kampen skole;59.9127031;10.7834084
Karlsrud skole;59.8778455;10.8101561
Kastellet skole;59.8729364;10.7928275
Kjelsås skole;59.9663328;10.7854903
Klemetsrud skole;59.8349166;10.844471
Korsvoll skole;59.9639436;10.7524614
Kringsjå skole;59.9625895;10.7299529
Lakkegata skole;59.9206475;10.7685595
Lambertseter skole;59.8716392;10.8160687
Lilleaker skole;59.923186;10.639382
Lilleborg skole;59.9332473;10.7648266
Lindeberg skole;59.9314545;10.8801598
Linderud skole;59.9405182;10.8341715
Ljabruskolen - steinerskole for Elever Med Spesielle Behov Sti;0;0
Ljan skole;59.8469668;10.7865588
Lusetjern skole;59.832486;10.7898316
Lutvann skole;59.9248999;10.8701153
Lycee Francais Rene Cassin Doslo;0;0
Lysejordet skole;59.9371666;10.6384289
Lønnebakken skole;59.9458532;10.8583003
Løren skole;59.9313577;10.8029223
Majorstuen skole;59.9290061;10.7132113
Manglerud skole;59.8945599;10.823096
Maridalen skole;60.004507;10.764003
Marienlyst skole;59.934957;10.7229028
Mortensrud skole;59.8473923;10.8251317
Munkerud skole;59.8585679;10.8116362
Møllergata skole;59.9185541;10.7501413
Nedre Bekkelaget skole;59.8809596;10.7708405
Nordpolen skole;59.9399108;10.7718683
Nordseter skole;59.8670285;10.7958636
Nordstrand skole;59.8606361;10.7941898
Nordtvet skole;59.9515444;10.8723504
Nordvoll skole;59.9239294;10.8647258
Norlights International School Oslo AS;0;0
Nyskolen i Oslo grunnskole;59.8634086;10.8389793
Nøklevann skole;59.8768138;10.8490941
Oppsal skole;59.8979404;10.8440061
Oslo kommune Språksenteret;59.921994;10.770175
Oslo montessoriskole;59.9639147;10.6927522
Prinsdal skole;59.8364455;10.8140134
Refstad skole;59.9377747;10.8055204
Rommen skole;59.9667545;10.9141406
Rosenholm skole;59.8289813;10.7854303
Rudolf steinerskolen i Oslo Sti;0;0
Ruseløkka skole;59.9132435;10.7254875
Rustad skole;59.8714475;10.8391353
Ryenberget skole;59.8988205;10.8022744
Rødtvet skole;59.9542716;10.8585402
Sagene skole;59.9312174;10.7598896
Seterbråten skole;59.8310685;10.8294371
Sinsen skole;59.9351483;10.7842314
Skjønnhaug skole;59.9288367;10.8768111
Skøyen skole;59.9292402;10.6911537
Slemdal skole;59.9515517;10.6926458
Smestad skole;59.9327026;10.6826142
St Sunniva skole avd Undervisning;0;0
Steinerskolen på Nordstrand;59.861879;10.79017
Stenbråten skole;59.8525578;10.825315
Stiftelsen Den Tysk-Norske skolen i Oslo avd grunnskole og videregående;0;0
Stiftelsen montessoriskolen Lyse;0;0
Stovner skole;59.9565379;10.9269123
Svendstuen skole;59.9583808;10.688866
Sørkedalen skole;60.0172038;10.6136941
Teglverket skole;59.9236874;10.7949647
Tiurleiken skole;59.9625899;10.8939848
Tonsenhagen skole;59.9463367;10.8293339
Toppåsen skole;59.8329456;10.8000707
Trasop skole;59.9056594;10.8490279
Trosterud skole;59.9228462;10.8578215
Tveita skole;59.913698;10.838126
Tøyen skole;59.9147045;10.7732058
Tåsen skole;59.953693;10.7509642
Ullevål skole;59.9422737;10.7326186
Ullevålsveien skole;59.9292785;10.7363218
Uranienborg skole;59.9200769;10.7189385
Vahl skole;59.916692;10.766812
Veitvet skole;59.9417435;10.8543925
Vestli skole;59.9709441;10.9275395
Vetland skole grunnskole;0;0
Vinderen skole;59.9413983;10.7065774
Voksen skole;59.9550546;10.6530682
Vollebekk skole;59.9373465;10.827204
Vålerenga skole;59.9070718;10.7899231
Østensjø skole;59.8994586;10.8325636
Østmarka skole;59.8902324;10.8528971
Årvoll skole;59.9443074;10.8137623
Bjerkreim skule;58.583264;6.075741
Vikeså skule;58.63844;6.092869
Bokn skule;59.2300805;5.4370425
Eigerøy skole;58.4547651;5.9643724
Gamleveien skole;58.457081;6.012316
Grøne Bråden skole;58.469273;6.006713
Helleland skole;58.532777;6.1332365
Hellvik skole;58.482663;5.887208
Husabø skole;58.447471;6.0010075
Rundevoll skole;58.431532;5.997514
Samfundets skole Egersund;58.445263;6.004577
Bærland skole;58.775943;5.827567
Dirdal skole;58.815705;6.218146
Kongstun Kristne friskole;58.7781207;5.8357643
Oltedal skole;58.826431;6.034382
Solås skole;58.7736821;5.8638603
Ålgård skole;58.7647275;5.8575365
Austrheim skole;59.43755;5.281118
Brakahaug skole;59.401599;5.318846
Gard skole;59.4280036;5.2667974
Hauge skole;59.420384;5.264003
Lillesund skole;59.4065685;5.2813618
Rossabø skole;59.4045433;5.2989473
Saltveit skole;59.468648;5.284942
Skåredalen skole;59.411453;5.324681
Solvang skole;59.418499;5.286613
Steinerskolen i Haugesund;59.418452;5.299388
Fister skule;59.1761221;6.0792545
Hjelmeland skule;59.2305331;6.1687922
Årdal skule;59.155904;6.192509
Bø skule;58.66912;5.651288
Høyland skule;58.6861557;5.594011
Motland skule;58.661481;5.641808
Ogna skule;58.517759;5.809038
Varhaug skule;58.616247;5.6522916
Vigrestad storskule;58.570164;5.701873
Avaldsnes skole;59.353919;5.280175
Grindhaug skole;59.258139;5.202383
Haugesund International School Sti;0;0
Håvik skole;59.3184161;5.2873946
Kolnes skole;59.389297;5.372639
Kopervik skole;59.2879962;5.2945919
Kvalavåg montessoriskole AS;0;0
Mykje skole;59.3497782;5.3305008
Norheim skole;59.379101;5.321386
Sevland skole;59.272708;5.202154
Skudeneshavn skole;59.1519812;5.2637278
Stangaland skole;59.2733857;5.3149587
Sørhåland barneskole AS;0;0
Torvastad skole og kultursenter;59.38934;5.252592
Veavågen skole;59.291999;5.226075
Ådland skole;59.242583;5.202559
Åkra skole;59.259861;5.190468
Bore skule;58.7883995;5.6034583
Engelsvoll skule;58.77788;5.683958
Kleppe skule;58.7790172;5.6371602
Kleppelunden skule;58.7792072;5.6177442
Orre skule;58.7183868;5.5721641
Orstad skule;58.7871892;5.7131218
Tu skule;58.745375;5.64161
Kvitsøy skole;59.0652309;5.4120202
Heskestad skule;58.530813;6.343043
Kiellands Minde skole;58.525893;6.497554
Nygård barneskole;58.450601;6.552559
Goa skole;58.9855597;5.6311153
Grødem skole;59.0103682;5.6536543
Harestad skole;59.0026265;5.6282129
Aspervika skole;58.8655585;5.7634909
Austrått skole;58.8420105;5.7404341
Bogafjell skole;58.821316;5.750795
Buggeland skole;58.814702;5.754574
Figgjo skole;58.7870286;5.8057876
Forsand skule;58.8974353;6.1327058
Forus friskole - Bus;0;0
Ganddal skole;58.823177;5.712217
Hana skole;58.855692;5.7754053
Hommersåk skole;58.9260621;5.8497511
Høle barne- og ungdomsskule;58.896918;6.017984
Iglemyr skole;58.8437774;5.7542124
Kleivane skole;58.8374924;5.774278
Kyrkjevollen skole;58.926991;5.839175
Lura skole;58.876059;5.735786
Malmheim skole;58.8332151;5.6600383
Maudland skole;58.9189919;5.8721256
Porsholen skole;58.880862;5.736366
Sandnes friskole AS;0;0
Sandnes International School AS;0;0
Sandved skole;58.8406983;5.7162822
Smeaheia skole;58.863323;5.722858
Stangeland skole;58.855087;5.715774
Sviland skule;58.827659;5.821036
Sørbø skole;58.825603;5.7306165
Trones skole;58.85603;5.733868
Vatneli skole;58.859148;5.772301
Austarheim skule;59.658095;6.37953
Fløgstad skule;59.6545354;6.3621309
Risvoll skule;59.644621;6.311246
Sokndal skole;58.344054;6.296031
Dysjaland skule;58.840719;5.600638
Grannes skole;58.9180354;5.6824807
Haga skole;58.9372451;5.6047783
Røyneberg skole;58.903872;5.66594
Sande skole;58.888699;5.656209
Skadberg skole;58.8832812;5.6679041
Storevarden skole;58.938784;5.574271
Auglend skole;58.94684;5.726762
Biss Gausel Sti;0;0
Biss Sentrum AS;0;0
Buøy skole;58.985833;5.734569
Byfjord skole;58.980259;5.7022731
Eiganes skole;58.9643697;5.707083
Finnøy skule;59.1744539;5.8715735
Gausel skole;58.8981543;5.7336638
Godeset skole;58.9011588;5.7138553
Hafrsfjord skole;58.9433298;5.6559184
Hundvåg skole;58.9965278;5.7338149
Johannes læringssenter Flerspråklige Barn;58.9673177;5.7551632
Jåtten skole;58.91544;5.725749
Kampen skole;58.9720155;5.7159438
Kristen friskole AS;0;0
Kvaleberg skole;58.944473;5.74471
Kvernevik skole;58.966746;5.60549
Lassa skole;58.957486;5.6944977
Lervig skole;58.9670448;5.757639
Madlamark skole;58.9498673;5.6779947
Madlavoll skole;58.9425631;5.6905122
Mosterøy skole;59.078809;5.669468
Norlights montessoriskole Stavanger AS;0;0
Nylund skole;58.9650385;5.7505283
Ombo oppvekstsenter Avdeling skule;0;0
Roaldsøy skole;58.9934958;5.7641061
Sjernarøy oppvekstsenter Avdeling skule;0;0
Skeie skole;59.0027434;5.7289713
Stavanger Kristne grunnskole;58.960849;5.691295
Steinerskolen Stavanger grunnskole;58.938509;5.734847
Storhaug skole;58.9661971;5.7415281
Sunde skole;58.960909;5.623613
Tasta skole;58.9836097;5.6790681
Teinå skole;58.9900355;5.6814457
Tjensvoll skole;58.9507804;5.704151
Vardenes skole;58.995698;5.683015
Vassøy skole;58.997825;5.786345
Vaulen skole;58.9310105;5.732326
Vikevåg skule;59.1033635;5.6984222
Våland skole;58.962252;5.7322908
Fjelltun skole;59.027431;6.0286995
Kfskolen - Jørpeland;59.027069;6.025578
Nordre Strand skole;59.1132;6.000744
Tau skole;59.063439;5.924126
Tryggheim Strand AS;0;0
Erfjord skule avd skule;0;0
Jelsa oppvekstsenter avd skule;0;0
Marvik skule avd skule;0;0
Sand skule avd skule;0;0
Vinjar skule avd skule;0;0
Bryne skule;58.7327749;5.6447463
Frøyland skule;58.7735847;5.7272009
Hognestad skule;58.7057022;5.6598874
Jærtun Lutherske friskule;58.730016;5.664254
Lye skule;58.7330332;5.7362567
Rosseland skule;58.730911;5.6595614
Undheim skule;58.6862285;5.7694407
Frakkagjerd barneskole;59.413493;5.40524
Førland skule;59.3947855;5.47831
Førre skole;59.428192;5.384226
Grinde skule;59.4288466;5.4606134
Nedstrand barne- og ungdomsskule;59.348863;5.798302
Straumen skule;59.431135;5.612954
Tysværvåg barne- og ungdomsskule;59.333951;5.485997
Utsira skole;59.305707;4.8877612
Sandeid oppvekstsenter;0;0
Skjold skule;59.506205;5.596689
Vats skule;59.491237;5.731826
Vik oppvekstsenter;0;0
Vikedal skule;59.496903;5.90859
Vågen oppvekstsenter;0;0
Ølen skule;59.604518;5.813243
Herre skole;59.1027718;9.5657062
Langesund barneskole;59.004785;9.733766
Rugtvedt skole;59.040016;9.673893
Rønholt skole;58.973909;9.572262
Stathelle barneskole;59.035808;9.705462
Drangedal 10-Årige skole;59.09819;9.057917
Kroken skole;58.9706119;9.1610414
Tørdal skule;59.154031;8.813619
Gimle skule;59.186477;8.086589
Hjartdal montessoriskule Sti;0;0
Sauland skule;59.620404;8.930894
Helle skole;58.9039461;9.3710134
Kragerø skole;58.8674668;9.4089338
Kragerøskjærgården montessoriskole;58.8580075;9.4779649
Sannidal skole;58.8934735;9.2939886
Kviteseid skule;59.410889;8.4743149
Bø skule;59.4132312;9.0761357
Folkestad skule;59.436525;9.046218
Gvarv skole;59.3880656;9.1897282
Sauar friskole;59.41963;9.280634
Kyrkjebygda oppvekstsenter Avdeling skule;0;0
Tveit skule / Nissedal ungdomsskule;59.0241316;8.5204674
Helgen montessoriskole;59.255845;9.35933
Holla 10-Årige skole;59.278989;9.262437
Lunde 10-Årige skole;59.306893;9.101499
Gransherad skole;59.6927;9.026822
Heddal barneskole;59.5815333;9.1713419
Hjuksebø montessoriskole SA;0;0
Høgås skole;59.5628443;9.3031421
Lisleherad montessoriskole SA;0;0
Sætre skole;59.570211;9.273259
Tinnesmoen skole;59.5712786;9.2589382
Tveiten skole;59.5483354;9.2827194
Bergsbygda montessoriskole;59.085119;9.720866
Borge skole;59.1524819;9.6758374
Brattås skole;59.095631;9.683319
Brevik oppvekstsenter avd skole;0;0
Grønli skole;59.124869;9.655141
Heistadskolene avd Barn;0;0
Klevstrand skole;59.117907;9.65119
Langangen skole;59.082114;9.810021
Myrene skole;59.1362024;9.6706104
Sandøya montessoriskole;59.050366;9.729837
Stiftelsen International School Telemark;0;0
Stridsklev skole;59.111471;9.668901
Tveten skole;59.1168376;9.6975417
Vestsiden skole;59.146152;9.6380182
Flatdal oppvekstsenter skole 1-7;59.567523;8.568436
Seljord barne- og ungdomsskule skole 1-10;59.4830576;8.6229899
Midtbygda skole;59.271141;9.7094077
Bratsbergkleiva skole;59.2056861;9.6165985
Buer skole;59.1691451;9.66189
Bølehøgda skole;59.1847816;9.6375989
Gjerpen barneskole;59.22536;9.607712
Kilebygda montessoriskole SA;0;0
Kjørbekkhøgda skole;59.1782711;9.6157229
Klyve skole;59.152148;9.628152
Kollmyr skole;59.2132668;9.5546096
Lunde barneskole;59.2073921;9.6033684
Moflata skole;59.187281;9.596311
Oasen skole Grenland AS;59.2072798;9.5679599
Skauen Kristelige skole;59.1942334;9.6304571
Skien kommune Spesialpedagogisk Enhet;0;0
Skotfoss oppvekstsenter avd skole;0;0
Stigeråsen skole;59.219115;9.5620603
Venstøp skole;59.2474246;9.5714919
Åfoss skole;59.198042;9.543717
Atrå barne- og ungdomsskole;59.987721;8.736121
Rjukan barneskole;59.879653;8.615192
Tinn montessoriskole SA;0;0
Høydalsmo skule;59.4981467;8.1953745
Tokke skule;59.446297;7.986363
Edland skule avd skule;0;0
Rauland skule avd skule;0;0
Øyfjell oppvekstsenter avd skule;0;0
Åmot skule avd skule;0;0
Laksvatn oppvekstsenter avd skole;0;0
Malangen skole;69.3317693;18.9010924
Nordkjosbotn skole;69.216643;19.5628308
Storsteinnes skole;69.237018;19.2134314
Setermoen skole;68.8746987;18.3617323
Grov skole;68.678161;17.120938
Ramsund skole;68.493184;16.518401
Sandstrand Montessoriforening;0;0
Skånland skole;68.5802405;16.5829349
Elvetun skole;69.0881395;17.6973243
Indre Kåfjord barne- og ungdomsskole;69.469272;20.920538
Manndalen skole;69.5262456;20.5266678
Olderdalen skole;69.6051785;20.5344448
Gratangsbotn skole;0;0
Montessoriskolen Morgan AS;0;0
Bergseng skole;68.8074824;16.4981755
Harstad montessoriskole SA;0;0
Harstad skole 1 - 7 skole;68.8037872;16.5411417
Kanebogen skole;68.7796957;16.5591787
Kila skole;68.7337361;16.5632135
Medkila skole;68.7593987;16.5414041
Seljestad barneskole;68.7868455;16.5323163
Sørvik skole;68.683497;16.527067
Øyriket oppvekstsenter avd skole;0;0
Andørja montessoriskole;68.917851;17.165543
Ibestad skole;68.785074;17.157938
Hansnes barne- og ungdomsskole;69.9613128;19.6068772
Vannvåg oppvekstsenter avd skole;0;0
Borkenes skole;68.773333;16.179925
Kvænangen barne- og ungdomsskole;69.9320029;22.041418
Lavangen skole;68.746774;17.813489
Eidebakken skole;69.575713;20.196784
Lenangen skole;69.813049;20.0248504
Lyngsdalen oppvekstsenter Avdeling skole;0;0
Bjørkeng oppvekstsenter avd skole;0;0
Fagerlidal skole;69.0745071;18.5378118
Karlstad oppvekstsenter avd skole;0;0
Mellembygd Kultur og oppvekstsenter avd skole;0;0
Olsborg skole;69.1493538;18.5969064
Sameskolen i Troms;69.100786;18.58841
Øvergård montessoriskole;69.021238;19.447656
Moan skole;69.7700995;21.0462411
Reisa montessoriskole;69.745537;21.111743
Rotsundelv skole;69.7863579;20.7049638
Straumfjordnes skole;69.868798;21.213897
Salangen kommune Salangen skole;0;0
Berg montessoriskole;69.44718;17.290889
Botnhamn skole grunnskole 1.-10.;69.5008945;17.870606
Finnsnes barneskole;69.2350505;17.9997604
Gibostad barne- og ungdomsskole;69.3545246;18.0635699
Gryllefjord skole;69.3628222;17.045179
Husøy skole;69.5439037;17.6597625
Kårvik skole;69.391301;18.1823874
Medby skole;69.280904;17.051599
Rossfjord barne- og ungdomsskole;69.3654409;18.3273322
Senja montessoriskole;69.5048307;17.6274432
Senjahopen skole;69.496202;17.484438
Silsand barneskole;69.2458439;17.9490142
Stonglandet skole;69.08686;17.187995
Trollvik skole;69.287348;17.994386
Vikstranda skole;69.1720039;17.7505896
Skjervøy barneskole;70.033796;20.9688528
Hatteng skole;69.2731478;19.9624061
Skibotn skole;69.386004;20.2776341
Longyearbyen skole grunnskole;78.2103398;15.6130256
Sørreisa barneskole;69.1453638;18.1598371
Bjerkaker skole;69.6345244;18.9235526
Borgtun skole;69.6746471;18.9686452
Ekrehagen skole Adventistsamfunnets Grunnskoler;69.685891;18.9551534
Ersfjordbotn skole;69.693853;18.619731
Fagereng skole;69.6429364;18.904994
Gyllenborg skole;69.6521191;18.9508972
Hamna skole;69.7030757;18.9785783
Hillesøyskolen Brensholmen skole;69.598864;18.04764
Kaldfjord skole;69.6830951;18.7385364
Krokelvdalen skole;69.6813901;19.0735787
Lakselvbukt skole;69.433859;19.645343
Lunheim skole;69.6713787;19.041432
Mortensnes skole;69.683274;18.943269
Prestvannet skole;69.659956;18.9438359
Ramfjord skole;69.5591638;19.1855435
Reinen skole;69.6352266;18.967873
Sandnessund skole;69.6968572;18.8790302
Selnes skole;69.6876092;18.8470648
Skittenelv skole;69.775706;19.333237
Skjelnan skole;69.6905019;19.0809572
Slettaelva skole;69.7030731;18.8945209
Solneset skole;69.6959225;18.9558043
Stakkevollan skole;69.694031;18.9926901
Steinerskolen i Tromsø Sti;0;0
Stiftelsen Tromsø International School;0;0
Storelva skole;69.684588;18.7966386
Straumsbukta skole;69.5765;18.628501
Tromsdalen skole;69.6472611;18.9943092
Trondjord skole;69.840387;18.865928
Vikran skole;69.542975;18.779669
Workinnmarka skole;69.6672365;18.9347369
Lauvsnes skole;64.497828;10.906349
Utvorda skole;64.584318;10.990721
Frosta skole;63.5865716;10.7372608
Dyrøy oppvekstsenter avd skole;0;0
Mausund oppvekstsenter avd skole;0;0
Nabeita skole;63.697582;8.791313
Nordskag oppvekstsenter avd skole;0;0
Sistranda barneskole;63.7303344;8.8288995
Grong barne- og ungdomsskole;64.4647501;12.3102764
Harran oppvekstsenter Avdeling skole;0;0
Halsa barne- og ungdomsskole;63.1199545;8.322643
Sodin skole;63.2919435;9.0813117
Svanem skole;63.394543;8.983378
Barman oppvekstsenter avd skole;0;0
Fillan skole;63.6027148;8.9750119
Knarrlagsund oppvekstsenter avd skole;0;0
Strand oppvekstsenter avd skole;0;0
Holtålen kommune Haltdalen oppvekstsenter avd skole;0;0
Holtålen kommune Hov skole;0;0
Høylandet barne- og ungdomsskole;64.625102;12.290765
Oppvekstsenter Vest skole;63.8637054;11.1523594
Røra skole;63.8603735;11.3974124
Sakshaug skole;63.879187;11.287588
Sandvollan skole;63.9497745;11.3339617
Skarnsundet montessoriskole SA;0;0
Mælan skole;63.75313;10.132458
Skaugdalen montessoriskole SA;0;0
Stadsbygd skole;63.511834;10.001422
Testmann Minne skole;63.6805398;10.6056591
Vanvikan skole;63.555811;10.221984
Åsly skole;63.586873;9.962247
Leka barne- og ungdomsskole;65.094337;11.7067
Ekne barneskole;0;0
Frol barneskole;0;0
Halsan barneskole;0;0
Markabygda montessoriskole SA;0;0
Nesheim skole;0;0
Skogn barne- og ungdomsskole;0;0
Vårtun Kristne oppvekstsenter SA;0;0
Ytterøy barne- og ungdomsskole;0;0
Åsen barne- og ungdomsskole;0;0
Lierne kommune - Stortangen skole;0;0
Lierne kommune - Sørli skole;0;0
Hommelvik skole;63.4122878;10.8055642
Saksvik skole;63.4346685;10.6022059
Sveberg skole;63.422365;10.759203
Vikhammer skole;63.4385187;10.6362753
Brekkåsen skole;63.270209;10.2325328
Eid skole;63.1695225;10.1130152
Flå skole;63.196733;10.316501
Gimse skole;63.286281;10.263342
Gåsbakken skole;63.116847;9.969166
Hovin skole;63.106619;10.226715
Høyeggen skole;63.2871343;10.296127
Lundamo skole;63.1512245;10.2877632
Rosmælen skole;63.226405;10.273746
Meråker skole;63.413249;11.733703
Budal Oppvekstområde avd skole;0;0
Singsaas Oppvekstområde avd skole;0;0
Soknedal skole;62.955976;10.189387
Støren barneskole;63.0336614;10.2866913
Bangsund skole;0;0
Bjørkly skole;0;0
Høknes barneskole;0;0
Jøa barne- og ungdomsskole;0;0
Namdalseid skole;0;0
Namsos barneskole;0;0
Otterøy oppvekstsenter avd skole;0;0
Sørenget oppvekstsenter avd skole;0;0
Vestbyen skole;0;0
Namsskogan skole;64.9250685;13.161329
Austafjord skole;64.91787;10.942743
Foldereid oppvekstsenter avd skole;0;0
Gravvik oppvekstsenter avd skole;0;0
Kolvereid skole;64.8632685;11.597365
Nærøysundet skole;64.857266;11.288739
Rørvik skole;64.8711255;11.2391862
Val Skoler AS avd Vgs;0;0
Aune barneskole;62.596561;9.683402
Drivdalen skole;62.534208;9.615784
Midtbygda skole;62.616535;9.567065
Vollan skole;62.575543;9.6342
Evjen skole;63.287256;9.840898
Gjølme skole;63.3178382;9.8063251
Grøtte skole;63.2612401;9.8110749
Lensvik skole;63.5057889;9.8234578
Lysheim skole;63.610522;9.668938
Løkken Verk montessoriskole SA;0;0
Meldal barne- og ungdomsskole;63.0424163;9.7016376
Orkanger barneskole;63.3065903;9.851979
Aa skole;63.399166;9.502278
Årlivoll skole;63.171584;9.744006
Strand barne- og ungdomsskole;64.322437;10.456993
Hunn skole;64.462423;11.765572
Overhalla barne- og ungdomsskole;64.497881;11.962529
Overhalla montessoriskole SA;0;0
Rennebu barne- og ungdomsskole;62.8295953;10.0064129
Voll skole AS;0;0
Rindal skole;63.0583209;9.2115405
Brekken skole;0;0
Glåmos skole;0;0
Røros skole;0;0
Røyrvik oppvekstsenter Avdeling skole;0;0
Bell skole;63.228164;11.033625
Selbustrand skole;63.26888;11.007719
Buvik skole;63.3110141;10.1772213
Børsa skole;63.325663;10.0663487
Venn oppvekstsenter avd skole;63.2503115;10.0504839
Snåsa montessoriskole SA;0;0
Snåsa skole;64.246639;12.364104
Åarjel-Saemiej Skuvle;64.2485067;12.3589346
Beitstad skole;64.109821;11.3897057
Binde skole;64.092039;11.713924
Byafossen skole;64.0291596;11.5426397
Egge barneskole;64.02857;11.48369
Folla skole;63.986245;11.106809
Henning skole;63.960155;11.611803
Kvam skole;64.138733;11.733867
Lø skole;63.9984638;11.4867169
Malm skole;64.0694245;11.2154601
Mære skole;63.9355847;11.4299124
Ogndal skole;64.026821;11.66895
Steinkjer montessoriskole;64.0144;11.477604
Steinkjer skole;64.0116691;11.5005439
Elvran skole;63.392998;11.07255
Fagerhaug International School AS;0;0
Fagerhaug Kristne skole SA;0;0
Forradal oppvekstsenter skole;0;0
Fosslia skole;63.480968;10.941482
Halsen barneskole;63.472332;10.927685
Haraldreina skole;63.461935;10.975921
Hegra barneskole;63.47003;11.11003
Kvislabakken skole;63.482646;10.898398
Lånke skole;63.441752;10.939151
Skatval skole;63.5097475;10.8289858
Skjelstadmark oppvekstsenter skole;0;0
Adventkirken skole Nidelven;63.4254857;10.3905494
Berg skole;63.4193931;10.4160258
Birralee International School Trondheim AS avd skole;0;0
Bispehaugen skole;63.4317327;10.4152158
Bratsberg skole;63.349667;10.480921
Breidablikk skole;63.3488639;10.3612663
Brundalen skole;63.417847;10.4786468
Byåsen skole;63.399431;10.358369
Charlottenlund barneskole;63.4264795;10.4882245
Dalgård skole og ressurssenter;63.3953468;10.3421019
Eberg skole;63.4185529;10.4394758
Flatåsen skole;63.3761168;10.3393667
Hallset skole;63.3923226;10.367412
Hansbakken skole;63.4288842;10.5428569
Heimdal Friskole, Kristen grunnskole Heimdal;0;0
Huseby barneskole - Ac Møller tegnspråksenter;63.363169;10.351354
Hårstad skole;63.351136;10.383558
Ila skole;63.4303821;10.3717905
Kattem skole;63.3452158;10.3341327
Lade skole;63.4468443;10.4366242
Lilleby skole;63.4406436;10.4354625
Nardo skole;63.4068508;10.4168093
Nidarvoll skole;63.3991575;10.4064295
Nyborg skole;63.4103572;10.3526916
Nypvang skole;63.331413;10.300051
Okstad skole;63.3813237;10.3796786
Ranheim skole;63.430032;10.522989
Romolslia skole;63.3805088;10.364326
Rosten skole;63.3590806;10.3803886
Rye skole;63.419686;10.144875
Singsaker skole;63.4232749;10.4134132
Sjetne skole;63.36809;10.395213
Solbakken skole;63.4029696;10.5240919
Spongdal skole;63.3545798;10.1639888
Stabbursmoen skole;63.3538291;10.3499481
Stavset skole;63.3867863;10.3325184
Steindal skole;63.401082;10.431042
Steinerskolen i Trondheim grunnskole;63.430361;10.372582
Stiftelsen steinerskolen Rotvoll;0;0
Stiftelsen Trondheim International School;0;0
Stiftelsen Trondheim Kristne Grunnskole, tomasskolen;0;0
Strindheim skole;63.432415;10.455516
Sørborgen skole;63.3053692;10.4615558
Tanem skole;63.3071831;10.4261277
Tonstad skole;63.3629661;10.3902424
Trondheim Montessori;63.439327;10.483033
Utleira skole;63.3892185;10.4271671
Vikåsen skole;63.412619;10.53793
Åsheim barneskole;63.3507381;10.3429667
Åsvang skole;63.4114706;10.452474
Åsveien skole og ressurssenter;63.414751;10.369812
Tydal barne- og ungdomsskole;63.041537;11.669671
Helgådal Montessori SA;0;0
Stiklestad skole;63.803187;11.565922
Verdalsøra barneskole;63.800392;11.485393
Vinne skole;63.774366;11.490492
Vuku barne- og ungdomsskole;63.775678;11.739301
Ørmelen skole;63.791799;11.469068
Botngård barneskole;63.764131;9.815578
Brekstad barneskole;63.6889084;9.6613587
Fagerenget montessoriskole SA;0;0
Opphaug skole;63.7264741;9.6938933
Vallersund oppvekstsenter;63.8515203;9.7456223
Brandsfjord barne- og ungdomsskole;64.188039;10.421431
Stokksund grunnskole og Sfo;0;0
Åset skole;63.9632751;10.2228609
Brattås skole;59.1958048;10.38974
Føynland skole;59.236384;10.446737
Labakken skole;59.2381764;10.4000978
Lindhøy skole;59.1088807;10.4020153
Oserød skole;59.1995544;10.4392546
Steinerskolen i Vestfold;59.2397727;10.3951564
Teie skole;59.252161;10.4025804
Torød skole;59.1821281;10.4404474
Botne skole;59.4957927;10.2569404
Ekeberg skole;59.4794293;10.3081745
Galleberg skole;59.6276658;10.2153173
Hof skole;59.5384492;10.0756699
Holmestrand Internasjonale montessoriskole Sti;0;0
Kjeldås skole;59.650464;10.236676
Kleiverud skole;59.5115241;10.2821046
Klokkerjordet skole;59.5864884;10.2147766
Selvik skole;59.5585641;10.2805014
Fagerheim skole;59.4255408;10.3725326
Granly skole;59.3983532;10.4607152
Horten montessoriskole SA;0;0
Lillås skole;59.4212316;10.4611278
Lysheim skole;59.3832666;10.4139492
Nordskogen skole;59.4168608;10.453972
Sentrum skole;59.4140926;10.4787551
Åsgården skole;59.3481173;10.4551558
Berg skole;58.985673;9.8715519
Fagerli skole;59.0703301;10.0412548
Frøy skole;59.0616058;10.0497878
Hedrum barneskole;59.0874679;10.0721721
Hvarnes skole;59.28855;9.935703
Jordet skole;59.0173881;10.0113318
Kongshaugen Kristne grunnskole;59.103408;10.11312
Kvelde skole;59.1908542;9.968291
Langestrand skole;59.049032;10.011379
Lardal skole;59.3997571;9.9654572
Mesterfjellet skole;59.0487291;10.0413863
Sky skole;59.0531721;9.9851643
Stavern skole;58.9965426;10.0333537
Tjodalyng skole;59.0548381;10.1273996
Valby skole;59.0449115;10.0912992
Østre Halsen skole;59.036599;10.065591
Andebu skole;59.3059262;10.1734982
Bokemoa skole;59.220995;10.290115
Byskolen;59.131114;10.2227377
Fevang skole;59.19092;10.229804
Framnes skole;59.119596;10.237046
Gokstad skole;59.132103;10.252682
Haukerød skole;59.146196;10.186502
Helgerød skole;59.150727;10.283769
Høyjord skole;59.3671462;10.1376266
Kodal skole;59.2156186;10.1393431
Krokemoa skole;59.133741;10.17318
Melsom skole;59.2319766;10.3384103
Moe skole;59.1428777;10.1981584
Mokollen skole;59.145127;10.211794
Mosserød skole;59.1477028;10.2089036
Ormestad skole;59.1163765;10.2552477
Sande skole;59.1376099;10.2279857
Skagerak International School Sti;0;0
Store Bergan skole;59.101624;10.20823
Unneberg skole;59.1529882;10.2513993
Vennerød skole;59.269629;10.237493
Vesterøy skole;59.095096;10.261853
Virik skole;59.125482;10.206827
Barkåker skole;59.316475;10.392
Bjerkely skole;59.3851272;10.364989
Byskogen Kombinerte skole;59.2824623;10.4182461
Eik skole;59.2936805;10.4252987
Elihu Kristne grunnskole;59.268361;10.443658
Granly skole;59.2905416;10.4164836
Husvik skole;59.2573023;10.4739354
Kirkevoll skole;59.4179068;10.2766789
Presterød skole;59.2742001;10.4600487
Ramnes skole;59.3553248;10.2438963
Ringshaug skole;59.2847552;10.4873148
Røråstoppen skole;59.3707243;10.2792563
Sandeåsen skole;59.2782177;10.4491411
Sem skole;59.285461;10.33206
Skagerak International School, Tønsberg AS;0;0
Solerød skole;59.3712932;10.364377
Træleborg skole;59.2645065;10.4228133
Tønsberg Montessori skole Sti;0;0
Vear skole;59.2592864;10.3598661
Volden skole;59.313054;10.49462
Alversund skule;60.5663411;5.2354927
Eikanger skule;60.60908;5.388927
Grasdal skule;60.5502522;5.2130291
Hordabø skule;60.7009374;4.9282366
Knarvik barneskule;60.5500257;5.2906262
Leiknes skule;60.571752;5.378869
Lindås barneskule;60.7339925;5.1639957
Manger skule;60.6414592;5.0386468
Nordhordland Kristne grunnskole;60.5647041;5.2439089
Ostereidet barneskule;60.629972;5.483499
Rossland skule;60.560905;5.053152
Sagstad skule;60.521669;5.225195
Seim skule;60.615688;5.2716207
Skodvin montessoriskule;60.6948657;5.2297831
Sæbø skule;60.619174;5.177406
Vestbygd skule;60.5287972;5.1594242
Askvoll skule;61.346895;5.091652
Atløy skule;61.326374;5.023835
Bulandet skule;61.28464;4.619131
Gjelsvik skule;61.461907;5.36552
Holmedal montessoriskule;61.3605705;5.1877516
Davanger skole;60.471139;5.101429
Erdal barneskole;60.443392;5.227534
Fauskanger barne- og ungdomsskule;60.5244775;5.0294861
Florvåg skole;60.419507;5.236091
Follese skole;60.408048;5.162593
Hanøy skole;60.447588;5.088338
Haugland skole;60.450334;5.157928
Hetlevik skole;60.424689;5.149266
Hop skole;60.476189;5.214071
Kleppe skole;60.4234868;5.2010815
Kleppestø barneskole;60.411739;5.219916
Strusshamn skole;60.4059786;5.1917301
Træet skule;60.5091049;5.0790735
Tveit skole;60.452873;5.133617
Aurland barne- og ungdomsskule;60.9036125;7.1972214
Kolbeinsvik montessoriskule;60.043201;5.199342
Selbjørn skule;60.00518;5.19822
Storebø skule;60.095141;5.2238737
Kaland skule;60.8011;4.999752
Årås skule;60.7797216;4.9366158
Alvøen skole;60.3645312;5.187516
Apeltun skole;60.2970617;5.3417133
Aurdalslia skole;60.3077371;5.2817336
Bergen Kristne grunnskole;60.338955;5.320512
Bjørgvin montessoriskole;60.34995;5.35078
Bjørndalsskogen skole;60.3481221;5.2431481
Bønes skole;60.332453;5.308696
Christi Krybbe Skoler;0;0
Damsgård skole;60.382029;5.302015
Eidsvåg skole;60.436853;5.306215
Fjellsdalen skole;60.3350587;5.2944897
Flaktveit skole;60.4639794;5.3591602
Fridalen skole;60.3637679;5.3589845
Garnes skule;60.44197;5.4636201
Haukedalen skole;60.4651139;5.3012684
Haukeland skole;60.3800578;5.3611859
Haukås skole;60.4906797;5.3846293
Hellen skole;60.4256145;5.2979683
Hjellestad skole;60.2575806;5.2538213
Holen skole;60.3897144;5.2833266
Hordvik skole;60.5199197;5.3100645
International School Of Bergen avd skole;0;0
Kaland skole;60.27956;5.406729
Kalvatræet skole;60.445735;5.320663
Kirkevoll skole;60.2650217;5.3473818
Kjøkkelvik skole;60.3738648;5.2309805
Kringlebotn skole;60.32841;5.3718516
Krohnengen skole;60.4006155;5.3283371
Krokeide skole;60.2327461;5.2956851
Kronstad Oppveksttun skole;0;0
Kyrkjekrinsen skole;60.4760506;5.3429962
Landås skole;60.3623338;5.3702454
Li skole;60.4645669;5.3512125
Liland skole;60.2858581;5.2462082
Loddefjord skole;60.363746;5.231251
Lone skule;60.3763056;5.45561
Lyshovden Oppveksttun avd skole;0;0
Løvås Oppveksttun - skole;60.353598;5.291919
Mathopen skole;60.334528;5.2108892
Midtun skole;60.3144987;5.3578223
Minde skole;60.3544355;5.3363718
Mjølkeråen skole;60.4855031;5.2639743
Møhlenpris Oppveksttun avd skole;0;0
Møllebakken skole;60.3782656;5.3387771
Nattland skole;60.337658;5.373347
Nordnes skole;60.3973682;5.3078664
Ny Krohnborg skole;60.375081;5.3339891
Nygårdslien skole;60.3826545;5.2737298
Olsvik skole;60.381833;5.214957
Paradis skole;60.3385215;5.3425887
Rolland skole;60.4633965;5.3328132
Rudolf steinerskolen i Bergen skolen;0;0
Salhus skule;60.504263;5.264062
Seljedalen skole;60.360717;5.285271
Skeie skole;60.286274;5.3151172
Skjold skole;60.304901;5.3320315
Skranevatnet skole;60.3006897;5.2848965
Slettebakken skole;60.3556354;5.3573668
Smørås skole;60.3018477;5.3508612
St Paul skole;60.3887239;5.3235193
Stiftelsen Davinci montessoriskole;0;0
Stiftelsen montessoriskolen i Bergen;0;0
Stiftelsen steinerskolen på Skjold;0;0
Sædalen skole;60.349924;5.3927159
Sælen Oppveksttun avd skole;0;0
Søreide skole;60.3179533;5.2705804
Søråshøgda skole;60.302549;5.3181206
Tertnes skole;60.456794;5.285436
Ulsetskogen skole;60.4608836;5.3149789
Ulsmåg skole;60.3140022;5.3754942
Vadmyra skole;60.3602362;5.2274927
Varden skole;60.34038;5.27217
Ytre Arna skule;60.461949;5.432017
Ådnamarka skule;60.411297;5.475851
Baldersheim barneskule;60.145016;5.744062
Borgafjellet barneskule;60.2002837;5.4876303
Eikelandsosen barneskule;60.2471968;5.7402748
Fusa barneskule;60.1994504;5.6192743
Kuventræ barneskule;60.195707;5.4497968
Lunde barneskule;60.1618353;5.4406922
Lysekloster barneskule;60.2114775;5.3889218
Nore Neset barneskule;60.1782639;5.4120137
Os barneskule;60.1886257;5.4682052
Strandvik Vekst AS;0;0
Strøno barneskule;60.1737013;5.3483671
Søfteland barneskule;60.2368442;5.451555
Søre Øyane barneskule;60.147109;5.3748524
Vinnes friskule;60.1530802;5.5862535
Ådlandsfjorden barneskule;60.282435;5.656443
Davik Oppvekst avd skule;0;0
Hauge Oppvekst avd skule;0;0
Kalvåg Oppvekst Frøyen skule;0;0
Svelgen Oppvekst avd skule;0;0
Ålfoten oppvekstsenter avd skule;0;0
Gilje skule;59.771603;5.192172
Hillestveit skule;59.6006264;5.2097133
Meling skule;59.791666;5.141062
Moster skule;59.711201;5.347442
Rubbestadneset skule;59.814243;5.258269
Svortland skule;59.791656;5.18961
Våge skule;59.7215587;5.2283643
Lægreid skule;60.463623;7.072878
Enge skule;59.66689;5.941024
Skånevik skule;59.731606;5.932692
Fedje skule;60.7779467;4.7210729
Rimbareid barne- og ungdomsskule;59.9147336;5.3198938
Selevik skule;59.82246;5.324054
Dingemoen skule;61.3538784;5.3995634
Flekke skule;61.3192004;5.3579724
Våge skule;61.28278;5.03584
Breim skule;61.7323662;6.5015141
Hyen skule;61.7371746;5.9169731
Nordstranda skule;61.789093;6.192082
Sandane skule;61.7721043;6.219903
Brekke skule;61.014168;5.45339
Byrknes skule;60.901405;4.836937
Dalsøyra skule;60.931588;5.146214
Eivindvik skule;60.983854;5.089383
Hyllestad skule;61.1699431;5.2947721
Bjordal skule;61.0676725;5.7998978
Høyanger skule;61.2217299;6.0750512
Kyrkjebø skule;61.164427;5.937743
Lavik skule;61.104911;5.515048
Brandsøy skule;61.602035;5.132577
Eikefjord barne- og ungdomsskule;61.589865;5.463462
Florø barneskole;61.5987234;5.0390786
Krokane skule;61.59745;5.064747
Raudeberg skule;61.985904;5.134484
Skavøypoll skule;61.918211;5.154666
Skram skule;61.9185742;5.1732436
Torvmyrane skule;61.599652;5.077835
Foreninga Norheimsund friskule;60.3466143;6.1857316
Norheimsund skule;60.3706869;6.1425758
Strandebarm skule;60.2559095;6.0141959
Øystese skule;60.388214;6.1999013
Ålvik skule;60.4332697;6.4363953
Bringedalsbygda skule;59.922505;5.795911
Halsnøy skule;59.7969319;5.6786159
Hatlestrand barne- og ungdomsskule;60.058287;5.918047
Malmanger skule;59.9834606;6.0122537
Omvikdalen skule;59.9413996;5.9866264
Sunde skule;59.8359334;5.7130115
Undarheim skule;59.8536582;5.7468896
Uskedalen skule;59.9338239;5.8613172
Valen skule;59.828972;5.7868151
Ølve montessoriskule SA;0;0
Gaupne skule;61.4032598;7.2910534
Hafslo barne- og ungdomsskule;61.3137678;7.2018761
Indre Hafslo oppvekstsenter skule;0;0
Jostedal oppvekstsenter skule;61.603777;7.291709
Luster oppvekstsenter skule;0;0
Skjolden oppvekstsenter skule;0;0
Solvorn oppvekstsenter skule;0;0
Veitastrond oppvekstsenter skule;0;0
Borgund skule;61.0814645;7.8532066
Lærdalsøyri skule;61.1015215;7.4939525
Matre skule;60.873552;5.584373
Nordbygda skule;60.830695;5.28392
Sandnes skule;60.792171;5.296686
Mo skule;60.8174504;5.8095532
Fotlandsvåg skule;60.588326;5.5244
Haus skule;60.455354;5.489353
Hjellvik montessoriskule;60.551212;5.408236
Hosanger montessoriskule Sti;0;0
Lonevåg skule;60.5214924;5.5100352
Valestrand skule;60.5058989;5.4366498
Samnanger barneskule;60.395182;5.767057
Fjærland oppvekstsenter avd skule;0;0
Kaupanger skule;61.188162;7.224538
Leikanger barneskule;61.1921915;6.8540395
Norane skule;61.180946;7.015672
Sagatun skule avd skule;0;0
Trudvang skule;61.2325362;7.0996655
Solund skule;0;0
Bryggja skule AS;0;0
Flatraket skule;61.9748517;5.2245734
Haugen skule;61.9247606;5.883831
Hjelle skule;61.918745;6.079254
Kjølsdalen montessoriskule SA;0;0
Nordfjordeid skule;61.911568;5.9935528
Selje skule;62.042713;5.350402
Stadlandet skule;62.111885;5.332945
Stårheim skule;61.9192375;5.7628774
Hystad skule;59.7974322;5.5132854
Langeland skule;59.768022;5.47407
Leirvik skule;59.7784094;5.4940417
Rommetveit skule;59.8164556;5.5230189
Sagvåg skule;59.7808635;5.3799135
Stord Kristne skule AS;0;0
Tjødnalio skule;59.770477;5.412
Loen skule;61.8677952;6.8463498
Nordsida skule;61.854046;6.524772
Olden skule;61.8338423;6.8084517
Oppstryn skule;61.9158155;7.1103851
Tonning skule;61.9053045;6.7176431
Vikane skule;61.850811;6.617213
Bygstad skule;61.37994;5.671383
Flatene skule;61.4487503;5.8375177
Førde barneskule;61.454744;5.8627033
Holsen skule og barnehage avd skule;0;0
Naustdal skule;61.512436;5.7151693
Sande skule;61.325499;5.798629
Skei skule;61.578304;6.48906
Slåtten skule;61.463345;5.894072
Sunde skule;61.4287287;5.9333679
Vassenden skule;61.4904407;6.1190922
Viksdalen skule;61.353341;6.117325
Auklandshamn skule;59.63804;5.386294
Førde skule;59.609879;5.472384
Sveio skule;59.543927;5.3583
Valestrand oppvekstsenter avd skule;0;0
Vikse skule;59.499258;5.300948
Onarheim skule;59.949114;5.629531
Tysnes skule;60.040914;5.537552
Hauso barne- og ungdomsskule;60.374927;6.641993
Jondal skule;60.2788164;6.2542504
Kinsarvik skule;60.3735825;6.7196131
Odda barneskole;60.0685862;6.5426192
Opedal skule;60.3292768;6.6581552
Røldal skule;59.832098;6.813295
Skare barneskule;59.930689;6.5967858
Tyssedal barneskole;60.117812;6.559375
Vikebygd skule;60.2595989;6.5729656
Brakanes barne- og ungdomsskule;60.5681252;6.9108709
Dale skule;60.5913709;5.8192078
Eksingedalen skule;60.789463;6.114091
Stamnes skule;60.6648226;5.7723037
Stanghelle skule;60.553416;5.7467792
Vaksdal skule;60.475627;5.740248
Feios skule;61.149316;6.765864
Flatbygdi skule;61.08131;6.579037
Fresvik Enspire skule AS;0;0
Bjørgum skule;60.6164692;6.537184
Bulken skule;60.628014;6.316238
Evanger skule;60.647468;6.116103
Gjernes skule;60.6150851;6.4202989
Granvin barne- og ungdomsskule;60.52749;6.722395
Gullfjordungen skule;60.6277044;6.3941663
Palmafossen skule;60.6364215;6.4696808
Skulestad skule;60.65867;6.436026
Vangen skule;60.6281626;6.4236835
Vossestrand barne- og ungdomsskule;60.781125;6.4860317
Bjorøy skule;60.3169205;5.1718169
Brattholmen skule;60.3513814;5.1568134
Danielsen barne- og ungdomsskule Sotra;60.352706;5.134551
Foldnes skule;60.3671935;5.1174401
Hjelteryggen skule;60.3837297;5.1533484
Knappskog skule;60.3766142;5.0526845
Kolltveit skule;60.3516948;5.095373
Landro skule;60.4178956;4.970759
Rong skule;60.5112044;4.9018164
Skogsvåg skule;60.2603335;5.0923951
Spildepollen skule;60.239266;5.039068
Stranda skule;60.197457;5.101234
Tjeldstø skule;60.592793;4.843034
Toftøy skule;60.4805345;4.9460411
Ulveset skule;60.3278162;5.0366888
Ågotnes skule;60.4069853;4.9954321
Farnes skule;61.3095059;7.801275
Tangen skule;61.2431605;7.7127405
Aremark skole;59.22587;11.6987897
Ambjørnrød skole;59.2469351;10.9208601
Begby barne- og ungdomsskole;59.2158526;11.0101875
Borge skole;59.224678;11.045441
Childrens International School Fredrikstad AS;0;0
Cicignon skole;59.2074881;10.952143
Gudeberg barne- og ungdomsskole;59.2051783;10.9620669
Hauge skole;59.2534335;10.9880905
Hurrød skole;59.2258557;10.9014422
Kjølberg skole;59.22822;11.0009633
Lunde barneskole;59.1616573;10.9330632
Manstad skole;59.2683318;10.769481
Nylende skole;59.303415;10.9749878
Nøkleby skole;59.23149;10.968183
Rekustad skole;59.2661442;10.9921675
Rød skole Kråkerøy;59.1949709;10.9098701
Rød skole Onsøy;59.2073649;10.8845998
Rødsmyra skole;59.1993756;10.9272542
Råkollen skole avd Råkollen;0;0
Sagabakken skole;59.2182304;10.9843249
Slevik skole;59.200212;10.83359
Steinerskolen i Fredrikstad;59.2664481;10.9976719
Torp skole;59.2452873;11.0239894
Torsnes skole;59.18611;11.049612
Trara skole;59.2191714;10.9391109
Trosvik skole;59.2250992;10.9261056
Årum skole;59.261623;11.091202
Berg skole;59.1246674;11.2981091
Gimle skole;59.1379043;11.4093539
Halden montessoriskole AS;0;0
Hjortsberg skole;59.1409368;11.383616
Kongeveien skole;59.113484;11.408196
Låby skole;59.130458;11.3652475
Os skole;59.1270175;11.3875362
Tistedal skole;59.1319696;11.4542189
Hvaler barne- og ungdomsskole;59.0706735;10.9431632
Askimbyen skole;59.5846527;11.156015
Båstad skole;59.6910025;11.295451
Grøtvedt skole;59.5891182;11.1790057
Havnås oppvekstsenter avd skole;0;0
Hovin skole;59.6234244;11.0799735
Hærland skole;59.5502413;11.4239798
Kirkefjerdingen skole;59.5239462;11.2660029
Knapstad barne- og ungdomsskole;59.624726;11.02448
Korsgård skole;59.5887433;11.1973437
Moen skole;59.5689005;11.1657022
Mysen skole;59.5557022;11.3376172
Ringvoll skole;59.5562462;10.8447214
Rom skole;59.5900472;11.1295431
Skjønhaug skole;59.63789;11.323199
Spydeberg skole;59.59611;11.068364
Stiftelsen steinerskolen i Indre Østfold;0;0
Tenor skole;59.5781615;11.2587335
Tomter skole;59.658264;11.00346
Trømborg skole;59.507023;11.363131
Marker kommune - Marker skole;0;0
Buen barne- og ungdomsskole;59.41864;10.68474
Bytårnet skole;59.4324636;10.6683428
Children's International School Moss AS;0;0
Ekholt skole;59.4107683;10.6793996
Halmstad skole;59.3804625;10.7454294
Krapfoss skole;59.4332052;10.6819278
Larkollen skole;59.3327879;10.6721817
Melløs skole;59.422018;10.6680665
Nøkkeland skole;59.4690671;10.6927398
Ramberg skole;59.4419108;10.6286131
Refsnes skole;59.4398796;10.6185434
Reier skole;59.4296667;10.6296697
Steinerskolen i Moss Grunnskole/Adm;0;0
Torderød skole Adventistkirkens grunnskole;0;0
Vang skole og ressurssenter;59.3828254;10.6896823
Verket skole;59.4443577;10.678576
Øreåsen skole;59.419936;10.6898839
Åvangen skole;59.4588928;10.6967499
Bergenhus skole;59.420057;11.347595
Kirkeng skole;59.357136;11.420453
Os skole;59.440117;11.311685
Råde kommune Karlshus skole;0;0
Råde kommune Spetalen skole;0;0
Alvimhaugen barneskole;59.271519;11.08821
Borgen barneskole;59.2642693;11.1685206
Childrens International School Sarpsborg AS;0;0
Grålum barneskole;59.290898;11.057991
Hafslund barneskole;59.2716883;11.1432606
Hafslundsøy barneskole;59.2854185;11.1465887
Hannestad barneskole;59.2761989;11.0587012
Hornnes barneskole;59.2087837;11.1928765
Jelsnes barneskole;59.375211;11.164599
Kurland barneskole;59.2944599;11.1104782
Lande barneskole;59.2903517;11.1042852
Olavsborg Kristne skole;59.2915487;11.095209
Sandbakken barne- og ungdomsskole;59.248473;11.180163
Sandesundsveien barneskole;59.2775815;11.103788
Tindlund barneskole;59.2691331;11.0470779
Varteig barne- og ungdomsskole;59.34941;11.18011
Kirkelund skole;59.4711204;11.1718721
Kirkebygden skole;59.49008;10.85623
Svinndal skole;59.423518;11.01519
Våk skole;59.461311;10.799346
