EnhetNavn;Kommune;lat;lng
Arendal International School (Ais);Arendal;58.432075;8.74147
Asdal Skole;Arendal;58.435024;8.694807
Birkenlund Skole;Arendal;58.470299;8.792936
Eydehavn Skole;Arendal;58.5095539;8.8692752
Flosta Skole;Arendal;58.552887;8.972653
Grimstad International School As;Arendal;58.337531;8.5807805
Hisøy Skole 1-10 Skoler;Arendal;58.4449844;8.7652587
Moltemyr Skole;Arendal;58.475933;8.764561
Myra Skole;Arendal;58.484573;8.732923
Nedenes Skole;Arendal;58.4131671;8.7094974
Nesheim Skole;Levanger - Levangke;58.517195;8.781854
Roligheden Skole Barne-/Ungdomstrinnet;Arendal;58.455447;8.803997
Rykene Oppvekstsenter Avd Skole;Arendal;58.41159200000001;8.633167199999999
Sandnes Skole;Hadsel;68.584484;14.909814
St. Franciskus Skole;Arendal;58.4577927;8.7659565
Stiftelsen Steinerskolen I Arendal;Arendal;58.4761148;8.7559636
Stinta Skole Barne- Og Ungdomstrinnet;Arendal;58.462557;8.7579788
Strømmen Oppvekstsenter Avd Skole;Arendal;58.45051489999999;8.742611499999999
Stuenes Skole Barne- Og Ungdomstrinn;Arendal;58.492494;8.847901
Birkeland Skole;Birkenes;58.3208908;8.2415812
Engesland Skole;Birkenes;58.52942;8.11796
Herefoss Skole;Birkenes;58.519119;8.353069
Bygland Skule;Bygland;58.831722;7.798301
Byglandsfjord Skule;Bygland;58.666517;7.812333
Bykle Barne- Og Ungdomsskule;Bykle;59.3567449;7.3586337
Fjellgardane Skule;Bykle;59.5639832;7.3558341
Evje Barneskule;Evje Og Hornnes;58.590928;7.82098
Hornnes Barneskule;Evje Og Hornnes;58.567555;7.763544
Borhaug Skole;Farsund;58.0998155;6.585855
Farsund Barneskole;Farsund;58.0928756;6.7954073
Vanse Skole;Farsund;58.1045097;6.6946259
Gyland Skole;Flekkefjord;58.37619;6.834008
Hidra Skole;Flekkefjord;58.232993;6.554486
Sira Skole;Flekkefjord;58.415733;6.660056
Sunde Skole;Stavanger;58.960909;5.623613
Froland Barneskole;Froland;58.512397;8.632294
Mykland Skole;Froland;58.632134;8.294034
Abel Skole;Gjerstad;58.839058;9.094655
Eide Skole;Grimstad;58.2691361;8.5048766
Fevik Skole;Grimstad;58.381716;8.679816
Fjære Barneskole;Grimstad;58.3698544;8.622854
Frivoll Skole;Grimstad;58.3466;8.577291
Hesnes Skole Montessoriskolen I Grimstad;Grimstad;58.343523;8.618342
Holviga Barneskole;Grimstad;58.324293;8.567059
Jappa Skole;Grimstad;58.348336;8.588836
Landvik Skole;Grimstad;58.3490726;8.5351871
Eiken Skule;Hægebostad;58.487218;7.19692
Kollemo Skule;Hægebostad;58.383446;7.215788
Iveland Skole;Iveland;58.456334;7.919944
Brattbakken Skole;Kristiansand;58.1786705;8.0918534
Fagerholt Skole;Kristiansand;58.1793204;8.0340622
Finsland Skole;Kristiansand;58.2736055;7.585993
Flekkerøy Skole;Kristiansand;58.078851;7.995235
Hellemyr Skole;Kristiansand;58.1474858;7.9357089
Hellemyr Skole Kompetanse;Kristiansand;58.1473505;7.9367722
Justvik Skole;Kristiansand;58.2039818;8.0300722
Karl Johans Minne Skole;Kristiansand;58.1482673;7.9558781
Karuss Skole;Kristiansand;58.1292669;7.9499914
Kringsjå Skole;Oslo;59.9625895;10.7299529
Kristiansand Internasjonale Skole;Kristiansand;58.156184;8.018051
Krossen Skole;Kristiansand;58.1534313;7.9547858
Krossen Skole - Kompetanse;Kristiansand;58.1539482;7.9535881
Langenes Skole;Kristiansand;58.078205;7.855842
Lovisenlund Skole;Kristiansand;58.1564012;8.0096264
Lunde Skole;Kristiansand;58.0967352;7.7711289
Mosby Oppvekssenter Skole;Kristiansand;58.2203603;7.9239569
Nygård Skole;Kristiansand;58.089446;7.816021
Oasen Skole Birkelid As;Kristiansand;58.1253102;7.844828299999999
Oasen Skole Strømme As Grunnskole;Kristiansand;58.1548321;8.0760794
Oasen Skole Vågsbygd As;Kristiansand;58.11919280000001;7.9475772
Odderhei Skole;Kristiansand;58.1341882;8.076199
Presteheia Skole;Kristiansand;58.16641;8.0110319
Rosseland Skole;Kristiansand;58.134302;7.858253
Samfundets Skole Sentrum;Kristiansand;58.149636;7.993728
Sjøstrand Skole;Kristiansand;58.1019688;7.9759944
Slettheia Skole;Kristiansand;58.1331082;7.9614618
Solholmen Skole;Kristiansand;58.1479291;7.9696061
Stiftelsen Steinerskolen I Kristiansand;Kristiansand;58.1591762;8.0152391
Strømme Skole;Kristiansand;58.1529083;8.0814148
Tordenskjoldsgate Skole;Kristiansand;58.1501825;7.9925454
Torridal Skole;Kristiansand;58.2044254;7.927384
Tunballen Skole;Kristiansand;58.169123;7.858572
Vardåsen Skole;Asker;59.8194701;10.3792916
Ve Skole;Kristiansand;58.207817;8.110378
Voiebyen Skole;Kristiansand;58.1004299;7.94905
Vågsbygd Skole;Kristiansand;58.1240155;7.9564345
Wilds Minne Skole;Kristiansand;58.1494345;8.0239556
Austerdalen Skole;Kvinesdal;58.356228;7.033009
Feda Skole;Kvinesdal;58.270544;6.817146
Kvinlog Skule;Kvinesdal;58.5208294;6.9324785
Liknes Skole;Kvinesdal;58.3132;6.965267
Vesterdalen Skole;Kvinesdal;58.384629;6.957211
Justøy Skole - Montessoriskolen I Lillesand Sti;Lillesand;58.2097157;8.3642904
Lillesand Kommune - Borkedalen Skole;Lillesand;58.2442548;8.3628812
Lillesand Kommune - Brentemoen Skole;Lillesand;58.2512604;8.3773869
Lillesand Kommune - Høvåg Skole;Lillesand;58.1593707;8.217202499999999
Lillesand Kommune - Tingsaker Skole;Lillesand;58.2599774;8.3992983
Bjelland Skole;Lindesnes;58.383364;7.525785
Frøysland Skole;Lindesnes;58.037979;7.453255
Furulunden Skole;Lindesnes;58.024961;7.446878
Holum Skole;Lindesnes;58.096895;7.522335
Ime Skole;Lindesnes;58.033417;7.492194
Laudal Skole;Lindesnes;58.2475881;7.4982189
Nyplass Skole;Lindesnes;58.081044;7.312257
Oasen Skole Mandal As;Lindesnes;58.0334803;7.454668700000001
Spangereid Skole;Lindesnes;58.0472581;7.1354322
Vigmostad Skole;Lindesnes;58.201928;7.337459
Øyslebø Skole;Lindesnes;58.1711322;7.5587268
Berge Barneskole;Lyngdal;58.1364648;7.068251
Byremo Barneskule;Lyngdal;58.4231356;7.4042642
Konsmo Skole;Lyngdal;58.2997439;7.3611687
Kvås Skole;Lyngdal;58.246447;7.185249
Stiftelsen Lyngdal Kristne Grunnskole;Lyngdal;58.129238;7.065723999999999
Å Barneskole;Lyngdal;58.1591023;7.0961533
Årnes Skole;Nes;60.129706;11.476634
Hope Oppvekstsenter Avdeling Skole;Risør;58.6895508;9.1462124
Risør Barneskole;Risør;58.716532;9.219084
Søndeled Skole;Risør;58.762854;9.081439
Sinnes Skule;Sirdal;58.913905;6.884116
Tonstad Skule;Sirdal;58.671944;6.721219
Tvedestrand Barneskole;Tvedestrand;58.6293317;8.9374461
Valle Skule;Ålesund;62.47841;6.661038
Vegårshei Skule;Vegårshei;58.75259;8.861058
Eikeland Oppvekstsenter Avdeling Skole;Vennesla;58.3392091;7.8096552
Kvarstein Skole;Vennesla;58.237717;7.939567
Moseidmoen Skole;Vennesla;58.2602514;7.9581254
Oasen Skole Vennesla As;Vennesla;58.2777255;7.970207
Skarpengland Skole;Vennesla;58.2946496;7.8526035
Vennesla Skole;Vennesla;58.2759824;7.9724086
Åmli Skule;Åmli;58.772319;8.49638
Åseral Barne- Og Ungdomsskule;Åseral;58.61885;7.420922
Arnestad Skole;Asker;59.802259;10.489535
Billingstad Skole;Asker;59.8748103;10.4733436
Blakstad Skole;Asker;59.8126073;10.4559585
Bondi Skole;Asker;59.8241209;10.439695
Brusetkollen Skole Og Ressurssenter;Asker;59.8522769;10.459565
Drengsrud Skole;Asker;59.8291591;10.4030218
Folkestad Skole;Asker;59.551606;10.465046
Frydenlund Skole;Narvik;68.4412587;17.4152958
Hagaløkka Skole;Asker;59.8304179;10.422298
Heggedal Skole;Asker;59.791514;10.4449062
Hofstad Skole;Asker;59.8478507;10.4717594
Hvalstad Skole;Asker;59.8604039;10.4654071
Hyggen Skole;Asker;59.716743;10.3727492
Jansløkka Skole;Asker;59.8489188;10.4435331
Mellom-Nes Skole;Asker;59.8663559;10.4965892
Midtbygda Skole;Oppdal;62.616535;9.567065
Nesøya Skole;Asker;59.8692011;10.518609
Nærsnes Skole;Asker;59.7550694;10.5049964
Rønningen Skole;Asker;59.8182215;10.4287453
Slemmestad Barneskole;Asker;59.7793429;10.4913742
Solberg Skole;Drammen;59.763357;10.077614
Spikkestad Skole;Asker;59.7494921;10.3360997
Steinerskolen I Asker Skole;Asker;59.8613471;10.4950208
Steinerskolen I Hurum Sti;Asker;59.6330556;10.4958333
Stiftelsen Asker International School;Asker;59.8297074;10.4171605
Stiftelsen Vollen Montessoriskole;Asker;59.807371;10.4854282
Sydskogen Skole;Asker;59.7596789;10.4525153
Sætre Skole;Notodden;59.570211;9.273259
Tofte Skole;Asker;59.5416449;10.554122
Torvbråten Skole;Asker;59.7615417;10.4796738
Vettre Skole;Asker;59.8256635;10.4692543
Aurskog-Høland Kommune - Aursmoen Skole;Aurskog-Høland;59.92424249999999;11.4502345
Aurskog-Høland Kommune - Bjørkelangen Skole;Aurskog-Høland;59.8747487;11.559191
Aurskog-Høland Kommune - Bråte Skole;Aurskog-Høland;59.7211759;11.4531086
Aurskog-Høland Kommune - Haneborg Skole;Aurskog-Høland;59.9275779;11.5432195
Aurskog-Høland Kommune - Løken Skole;Aurskog-Høland;59.7969962;11.4654578
Aurskog-Høland Kommune - Rømskog Skole;Aurskog-Høland;59.7492056;11.8105123
Aurskog-Høland Kommune - Setskog Oppvekstsenter - Skole;Aurskog-Høland;59.83092509999999;11.7207282
Anna Krefting Skole;Bærum;59.9488103;10.5133311
Bekkestua Barneskole;Bærum;59.9239072;10.5897697
Blommenholm Skole;Bærum;59.8985044;10.5484334
Bryn Og Hammerbakken Skole Bryn Skole;Bærum;59.9205629;10.4950095
Eikeli Skole;Bærum;59.9375584;10.6044264
Eiksmarka Skole;Bærum;59.9480159;10.623141
Emma Hjorth Skole;Bærum;59.8964789;10.4873517
Evje Skole;Bærum;59.8987292;10.5148549
Grav Skole;Bærum;59.9284162;10.6084974
Gullhaug Skole;Bærum;59.9450763;10.4914306
Haslum Skole;Bærum;59.925008;10.570385
Hosle Skole;Bærum;59.9348123;10.584765
Høvik Skole;Lier;59.760162;10.2396001
Høvik Verk Skole;Bærum;59.893818;10.570734
Jar Skole;Bærum;59.920452;10.625571
Jong Skole;Bærum;59.8873598;10.5091761
Levre Skole;Bærum;59.9068397;10.5088718
Lommedalen Skole;Bærum;59.9607871;10.4737578
Lysaker Skole;Bærum;59.9096682;10.6173232
Løkeberg Skole;Bærum;59.9096897;10.5483153
Oksenøya Skole;Bærum;59.8984944;10.6108613
Oslo International School;Bærum;59.9196503;10.5832691
Rykkinn Skole;Bærum;59.9299674;10.474445
Skui Skole;Bærum;59.9271543;10.4472109
Snarøya Skole;Bærum;59.888472;10.6230547
Stabekk Skole;Bærum;59.9154946;10.5932701
Steinerskolen I Bærum Grunnskoleundervisning;Bærum;59.930249;10.60661
Stiftelsen Bærum Montessoriskole;Bærum;59.907659;10.5788424
Storøya Skole;Bærum;59.893952;10.609953
Tanum Skole;Bærum;59.885377;10.477058
Bønsmoen Skole;Eidsvoll;60.283946;11.17933
Dal Skole;Frogn;59.7448728;10.6974616
Eidsvoll Verk Skole;Eidsvoll;60.293558;11.158345
Feiring Skole;Eidsvoll;60.4924065;11.1542598
Langset Skole;Eidsvoll;60.4035025;11.2399196
Råholt Skole;Eidsvoll;60.2734831;11.1891728
Steinerskolen På Eidsvoll;Eidsvoll;60.286582;11.240897
Vilberg Skole;Østre Toten;60.6486598;10.8299005
Ås Skole;Eidsvoll;60.329318;11.2151041
Kirkebygden Barne- Og Ungdomsskole;Enebakk;59.7663725;11.1490756
Stranden Skole;Enebakk;59.8229826;11.1663221
Ytre Enebakk Skole;Enebakk;59.7208951;11.056512
Drøbak Montessori Barneskole As;Frogn;59.6630543;10.634973
Drøbak Skole;Frogn;59.6672255;10.6347553
Dyrløkkeåsen Skole;Frogn;59.6674657;10.6556839
Heer Skole;Frogn;59.6835312;10.6628232
Sogsti Skole;Frogn;59.6545812;10.6465293
Gjerdrum Barneskole;Gjerdrum;60.0709621;11.0380711
Veståsen Skole;Gjerdrum;60.0833663;10.9983622
Hurdal Skole Og Kultursenter Avd Skole;Hurdal;60.43333430000001;11.0688343
Hurdal Steinerskole;Hurdal;60.4085572;11.0510112
Bergerbakken Skole;Jevnaker;60.2384093;10.3549972
Toso Skole;Jevnaker;60.2378267;10.4247958
Asak Skole;Lillestrøm;59.9930604;11.108926
Blaker Skole;Lillestrøm;59.9904606;11.3721399
Brånås Skole;Lillestrøm;59.9980929;11.0228659
Dalen Skole;Lillestrøm;59.8762306;11.218963
Frogner Skole;Lillestrøm;60.0254365;11.103104
Frydenlund Skole Og Ressurssenter;Lillestrøm;59.9507395;11.0139051
Garderåsen Skole;Lillestrøm;59.9422593;11.1535736
Gjellerås Skole;Lillestrøm;59.9662106;11.0001965
Hovinhøgda Skole;Lillestrøm;59.9321862;11.1419808
Kjeller Skole;Lillestrøm;59.9742877;11.0399084
Kjellervolla Skole;Lillestrøm;59.9649947;11.0442783
Oks Friskole Sti;Lillestrøm;59.9814731;11.0146295
Riddersand Skole;Lillestrøm;59.917226;11.169982
Sagdalen Skole;Lillestrøm;59.950985;11.011879
Skjetten Skole;Lillestrøm;59.9599672;10.9966942
Sten-Tærud Skole;Lillestrøm;59.9955063;11.0405668
Sørum Skole;Lillestrøm;60.0107612;11.236591
Sørumsand Skole;Lillestrøm;59.979004;11.2334026
Vesterskaun Skole;Lillestrøm;60.0214556;11.1654336
Vigernes Skole;Lillestrøm;59.9551457;11.0717551
Volla Skole;Lillestrøm;59.9650925;11.0441717
Åsenhagen Skole;Lillestrøm;60.0088209;11.033627
Grua Skole;Lunner;60.2586759;10.6605932
Harestua Skole;Lunner;60.2110977;10.7130379
Lunner Barneskole;Lunner;60.2966283;10.5577044
Benterud Skole;Ringerike;60.159879;10.249777
Finstad Skole;Nordre Follo;59.7158004;10.8220352
Fjellhamar Skole;Lørenskog;59.9385768;10.9781045
Kurland Skole;Lørenskog;59.9331299;11.0182876
Luhr Skole;Lørenskog;59.9434059;10.9554905
Lørenskog Friskole;Lørenskog;59.931378;10.929107
Rasta Skole;Lørenskog;59.920513;10.938593
Rudolf Steinerskolen Lørenskog Sti;Lørenskog;59.9131554;10.9383158
Solheim Skole;Lørenskog;59.9299351;10.9542929
Åsen Skole;Ringsaker;61.026777;10.753892
Eltonåsen Skole;Nannestad;60.13167;11.014821
Kringler-Slattum Skole;Nannestad;60.1713182;10.9951456
Maura Skole;Nannestad;60.257005;11.04067
Preståsen Skole;Nannestad;60.222015;11.026929
Auli Skole;Nes;60.035082;11.360623
Fenstad Skole;Nes;60.2156359;11.4020068
Fjellfoten Skole;Nes;60.093182;11.474796
Framtun Skole;Nes;60.060872;11.409578
Hoppensprett Akademiet Brårud As;Nes;60.2088577;11.3323299
Neskollen Skole;Nes;60.125442;11.3394039
Romerike International School Sti;Nes;60.12736080000001;11.3380797
Skogbygda Skole;Nes;60.2283522;11.5155903
Østgård Skole;Nes;60.120193;11.530076
Berger Skole;Rendalen;61.89333;11.076386
Bjørnemyr Skole;Nesodden;59.8286715;10.6412046
Fjellstrand Skole;Nesodden;59.7964325;10.6228268
Jaer Skole;Nesodden;59.7906901;10.6901685
Myklerud Skole;Nesodden;59.7465612;10.6138539
Nesoddtangen Skole;Nesodden;59.854107;10.665036
Rudolf Steinerskolen Stiftelsen Avd Undervisning;Nesodden;59.80428189999999;10.6381967
Elvetangen Skole;Nittedal;60.1123359;10.8483702
Holumskogen Skole;Nittedal;59.98366;10.938499
Rotnes Skole;Nittedal;60.055015;10.873204
Slattum Skole;Nittedal;60.0095081;10.9162318
Sørli Skole;Nittedal;60.0580758;10.8526188
Ulverud Skole;Nittedal;59.9962577;10.9211237
Bøleråsen Skole;Nordre Follo;59.763816;10.856641
Follo Barne- Og Ungdomsskole;Nordre Follo;59.7659528;10.8440732
Greverud Skole;Nordre Follo;59.768128;10.811089
Hans Nielsen Hauges Grunnskole Follo As;Nordre Follo;59.73520579999999;10.9082107
Hebekk Skole;Nordre Follo;59.7251426;10.832854
Kolbotn Skole;Nordre Follo;59.8126987;10.803732
Kråkstad Skole;Nordre Follo;59.6777853;10.8856734
Langhus Skole;Nordre Follo;59.7475074;10.8388317
Siggerud Skole;Nordre Follo;59.7905422;10.8894795
Ski Skole;Nordre Follo;59.7204986;10.8445851
Sofiemyr Skole Holbergsvei;Nordre Follo;59.797734;10.8143635
Tårnåsen Skole;Nordre Follo;59.8133221;10.8218247
Vassbonn Skole;Nordre Follo;59.8116387;10.7851018
Vevelstadåsen Skole;Nordre Follo;59.756978;10.8485339
Østli Skole;Nordre Follo;59.7822257;10.8061144
Blystadlia Skole;Rælingen;59.93098;11.0407883
Fjerdingby Skole Og Ressursavdeling;Rælingen;59.9262051;11.0636737
Løvenstad Skole;Rælingen;59.9363659;11.0268006
Nordby Skole;Ås;59.724593;10.762042
Rud Skole;Rælingen;59.945426;11.0425244
Smestad Skole;Oslo;59.9327026;10.6826142
Algarheim Skole;Ullensaker;60.1449695;11.249831
Bakke Skole;Ullensaker;60.069306;11.1316971
Borgen Skole;Ullensaker;60.098577;11.220049
Døli Skole;Ullensaker;60.1377055;11.1678273
Gystadmarka Skole;Ullensaker;60.152274;11.191579
Hovin Skole;Indre Østfold;59.6234244;11.0799735
Jessheim Skole Og Ressurssenter;Ullensaker;60.1473289;11.1738241
Mogreina Skole;Ullensaker;60.2281526;11.1662085
Nordkisa Skole;Ullensaker;60.190056;11.259017
Skogmo Skole;Ullensaker;60.1376293;11.2011916
Åreppen Skole;Ullensaker;60.08626;11.131884
Bjørlien Skole;Vestby;59.5980723;10.7071265
Brevik Skole;Vestby;59.5040925;10.6912817
Hølen Skole;Vestby;59.5419825;10.7382482
Son Skole;Vestby;59.519704;10.7005968
Vestby Skole;Vestby;59.5968072;10.7569116
Brønnerud Skole;Ås;59.6645457;10.7512528
Rustad Skole;Oslo;59.8714475;10.8391353
Sjøskogen Skole;Ås;59.7416273;10.7718757
Steinerskolen I Ås;Ås;59.6865617;10.8116304
Åsgård Skole;Ås;59.6637337;10.7866962
Akademiet Realfagsskole Drammen As;Drammen;59.74860529999999;10.1719843
Aronsløkka Skole;Drammen;59.7624067;10.1289493
Bragernes Skole;Drammen;59.7485795;10.2260466
Brandengen Skole;Drammen;59.7292059;10.2227334
Danvik Skole;Drammen;59.7351845;10.1929065
Fjell Skole;Drammen;59.7197261;10.2238158
Gulskogen Skole;Drammen;59.73999;10.17048
Hallermoen Skole;Drammen;59.7283256;10.1467357
Konnerud Skole;Drammen;59.7217704;10.133261
Krokstad Skole;Drammen;59.758275;10.0004039
Mjøndalen Skole;Drammen;59.7477459;10.0124481
Norlights Montessoriskole Drammen As;Drammen;59.7397994;10.1809964
Rosendal Skole;Drammen;59.7501414;10.0259396
Rødskog Skole;Drammen;59.7450104;10.1598414
Skoger Skole;Drammen;59.6852526;10.2509535
Steinberg Skole;Drammen;59.758595;9.9725525
Stenseth Skole;Drammen;59.760384;10.035932
Tangen Skole;Stange;60.6166324;11.2590873
Tømmerås Skole;Drammen;59.605797;10.402626
Vestbygda Skole;Drammen;59.6959739;10.1662574
Øren Skole;Drammen;59.7524187;10.1693938
Åskollen Skole;Drammen;59.7134237;10.2604475
Åssiden Skole;Drammen;59.752116;10.144363
Flesberg Skole;Flesberg;59.8385947;9.5721763
Flå Skole;Melhus;63.196733;10.316501
Gol Skule;Gol;60.7052273;8.9369401
Hemsedal Skole;Hemsedal;60.862643;8.561334
Geilo Barne- Og Ungdomsskole;Hol;60.53399;8.21917
Hallingskarvet Skole;Hol;60.6154819;8.2980795
Røyse Skole;Hole;60.0915234;10.2196871
Sundvollen Oppvekstsenter Avdeling Skole;Hole;60.05866199999999;10.312644
Tyrifjord Barne- Og Ungdomsskole;Hole;60.068448;10.171658
Vik Skole;Sømna;65.313092;12.1685992
Efteløt Skole;Kongsberg;59.550077;9.811701
Gamlegrendåsen Skole;Kongsberg;59.6507825;9.664883
Hvittingfoss Barne- Og Ungdomsskole;Kongsberg;59.489087;10.00927
Kongsberg Steinerskole As;Kongsberg;59.6305663;9.7198321
Kongsgårdmoen Skole;Kongsberg;59.6270015;9.6470317
Madsebakken Skole;Kongsberg;59.668946;9.673686
Raumyr Skole;Kongsberg;59.675182;9.654772
Skavanger Skole;Kongsberg;59.6820409;9.6281613
Stiftelsen Kongsberg International School;Kongsberg;59.67596069999999;9.642636099999999
Wennersborg Skole;Kongsberg;59.6532015;9.6398211
Krødsherad Skole;Krødsherad;60.1241455;9.7871805
Egge Skole;Lier;59.8142403;10.2137001
Gullaug Skole;Lier;59.7510794;10.2827686
Hallingstad Skole;Lier;59.810284;10.2696538
Hegg Skole;Lier;59.7827027;10.243788
Heia Skole;Lier;59.8210699;10.3290309
Hennummarka Skole;Lier;59.8213502;10.2799383
Oddevall Skole;Lier;59.862389;10.218061
Sylling Skole;Lier;59.89162;10.292531
Buskerud Skole;Modum;59.896305;9.889189
Enger Skole;Modum;59.891921;9.927209
Stalsberg Skole;Modum;59.922573;9.963959
Sysle Skole;Modum;59.9917586;9.9157845
Vikersund Skole;Modum;59.9734617;9.9926433
Nesbyen Skole;Nesbyen;60.5680861;9.1027428
Rødberg Skole;Nore Og Uvdal;60.26882;8.944285
Uvdal Skole;Nore Og Uvdal;60.270674;8.744945
Discovery International School As;Ringerike;60.2054315;10.3682193
Hallingby Skole;Ringerike;60.2687919;10.1792931
Helgerud Skole;Ringerike;60.1849;10.1955
Nes Skole;Ringerike;60.565726;9.986816
Ringerike Montessori As;Ringerike;60.13550770000001;10.1666881
Ringerike Steinerskole Sti;Ringerike;60.20940689999999;10.3760064
Sokna Skole;Ringerike;60.2426759;9.9310896
Steinsfjorden Montessoriskole Sa;Ringerike;60.1290624;10.3519346
Tyristrand Skole;Ringerike;60.085273;10.102012
Ullerål Skole;Ringerike;60.18133;10.267012
Vang Skole;Ringerike;60.1744603;10.3226608
Veien Skole;Ringerike;60.1755077;10.2328555
Veggli Skole;Rollag;60.041426;9.150187
Eggedal Skole;Sigdal;60.2399523;9.3563832
Nerstad Skole;Sigdal;60.0019706;9.7366144
Prestfoss Skole;Sigdal;60.041829;9.631114
Darbu Barneskole;Øvre Eiker;59.7000285;9.8000786
Hokksund Barneskole;Øvre Eiker;59.766659;9.9261805
Ormåsen Barneskole;Øvre Eiker;59.7545665;9.8223181
Røren Barneskole;Øvre Eiker;59.7706532;9.8797307
Skotselv Skole;Øvre Eiker;59.8493134;9.8799913
Vestfossen Barneskole;Øvre Eiker;59.729771;9.868933
Nedre-Ål Skule;Ål;60.628525;8.550031
Nordbygdene Skule;Ål;60.70158;8.486949
Torpo Skule;Ål;60.665291;8.721256
Alta Kristne Grunnskole Sa;Alta;69.9677541;23.3515328
Bossekop Skole;Alta;69.9601438;23.2423801
Elvebakken Skole;Alta;69.9710749;23.3647513
Gakori Skole;Alta;69.9520893;23.2214782
Haldde Montessoriskole Sa;Alta;69.9313348;23.0178681
Kaiskuru Skole;Alta;69.9560231;23.3732165
Komsa Skole;Alta;69.973064;23.269944
Leirbotn Skole;Alta;70.120693;23.394276
Rafsbotn Skole;Alta;70.0187733;23.5296252
Saga Skole;Alta;69.9626011;23.4273394
Talvik Skole;Alta;70.0419009;22.9433702
Tverrelvdalen Skole;Alta;69.932999;23.432776
Øvre Alta Skole;Alta;69.9273941;23.2660226
Berlevåg Skole;Berlevåg;70.8610772;29.0918586
Båtsfjord Skole;Båtsfjord;70.63308;29.717738
Boftsa Oppvekstsenter Avdeling Skole;Deatnu - Tana;70.3788295;28.1762119
Deanu Sàmeskuvla;Deatnu - Tana;70.19649;28.1689365
Tanabru Skole;Deatnu - Tana;70.197898;28.166543
Gamvik Skole;Gamvik;71.063754;28.241559
Mehamn Skole;Gamvik;71.03507;27.851265
Kautokeino Skole;Guovdageaidnu - Kautokeino;69.013813;23.046197
Baksalen Skole;Hammerfest - Hámmerfeasta;70.657753;23.7038682
Fjordtun Skole;Hammerfest - Hámmerfeasta;70.634536;23.6849732
Forsøl Skole;Hammerfest - Hámmerfeasta;70.7214996;23.7964221
Fuglenes Skole;Hammerfest - Hámmerfeasta;70.674135;23.6652845
Kokelv Oppvekstsenter;Hammerfest - Hámmerfeasta;70.6121636;24.6414087
Kvalsund Skole;Hammerfest - Hámmerfeasta;70.4985035;23.9736593
Reindalen Skole;Hammerfest - Hámmerfeasta;70.6915962;23.7007339
Breivikbotn Skole;Hasvik;70.591564;22.302993
Hasvik Skole;Hasvik;70.4889359;22.1502253
Sørvær Oppvekstsenter Avdeling Skole;Hasvik;70.63010369999999;21.9851267
Karasjok Grunnskole;Kárášjohka - Karasjok;69.4693965;25.5146275
Kjøllefjord Skole;Lebesby;70.9449785;27.3576028
Høgtun Skole;Loppa;70.250454;22.352506
Havøysund Skole;Måsøy;70.9988847;24.6573876
Honningsvåg Skole;Nordkapp;70.97842;25.977887
Billefjord Sjøsamiske Oppvekstsenter Avdeling Skole;Porsanger - Porsángu - Porsanki;70.31648009999999;25.047947
Lakselv Barneskole;Porsanger - Porsángu - Porsanki;70.0486892;24.9676467
Bugøynes Oppvekstsenter Avd Skole;Sør-Varanger;69.9734941;29.6408802
Hesseng Flerbrukssenter Avd Skole;Sør-Varanger;69.6910628;29.98805
Kirkenes Skole;Sør-Varanger;69.723396;30.0582691
Pasvik Skole;Sør-Varanger;69.454864;30.054626
Sandnes Og Bjørnevatn Skole;Sør-Varanger;69.6687274;29.972181
Unjargga Oahppogaldu Nesseby Oppvekstsenter Avd Skole;Unjárga - Nesseby;70.17449599999999;28.5536708
Vadsø Barne- Og Kulturskole Avd Skole;Vadsø;70.0750927;29.75437509999999
Vadsø Kommune Vestre Jakobselv Oppvekstsenter Avd Skole;Vadsø;70.11798089999999;29.3359618
Vardø Kommune Grunnskole;Vardø;70.3705875;31.1094377
Alvdal Barneskole;Alvdal;62.1043282;10.6428324
Dovre Barneskole;Dovre;62.0778772;9.1257012
Eidskog Montessoriskole Sa;Eidskog;59.92636299999999;11.993246
Magnor Skole;Eidskog;59.9452511;12.1707863
Skotterud Skole;Eidskog;59.9855247;12.1361543
Elverum Kommune - Ydalir Skole;Elverum;60.8920444;11.580184
Hanstad Skole;Elverum;60.8620607;11.5699666
Hernes Skole;Elverum;60.9262174;11.6371196
Lillemoen Skole;Elverum;60.825084;11.627237
Søbakken Skole;Elverum;60.8982018;11.5681366
Sørskogbygda Skole;Elverum;60.9424328;11.7805875
Vestad Skole;Elverum;60.8859957;11.5398856
Engerdal Barne- Og Ungdomsskole;Engerdal;61.8190077;11.9207648
Etnedal Skule;Etnedal;60.9260411;9.6335265
Folldal Skole;Folldal;62.1320915;9.9845768
Fjerdum Skole;Gausdal;61.233614;10.208153
Follebu Skole;Gausdal;61.2213303;10.2793651
Forset Skole;Gausdal;61.2012779;10.1470106
Biri Barneskole;Gjøvik;60.9535075;10.6082369
Blomhaug Skole;Gjøvik;60.7866202;10.6494705
Fredheim Skole;Gran;60.3907873;10.4633082
Gjøvik Skole;Gjøvik;60.7947283;10.6847402
Grande Skole;Gjøvik;60.8107427;10.5851946
Kopperud Skole;Gjøvik;60.769142;10.6759288
Lundstein Skole;Gjøvik;60.8427806;10.6631632
Snertingdal Skole;Gjøvik;60.8752516;10.4038092
Steinerskolen Gjøvik-Toten;Gjøvik;60.7882821;10.6996869
Vindingstad Skole;Gjøvik;60.7739847;10.6983093
Bjoneroa Skole;Gran;60.5162846;10.2958473
Brandbu Barneskole;Gran;60.4225035;10.5131429
Jaren Skole;Gran;60.3927191;10.5779236
Sanne Skole;Gran;60.367119;10.5320166
Trintom Skole;Gran;60.3597266;10.5866814
Grue Barne- Og Ungdomsskole;Grue;60.450287;12.054574
Greveløkka Skole;Hamar;60.8027511;11.0657521
Hamar Montessori Skole Sti;Hamar;60.8207101;11.0477278
Ingeberg Skole;Hamar;60.8279967;11.1303065
Lovisenberg Skole;Hamar;60.7955029;11.1644969
Lunden Skole;Hamar;60.8381517;11.1966283
Prestrud Skole;Hamar;60.8078898;11.0353781
Ridabu Skole;Hamar;60.802637;11.1361794
Rollsløkken Skole;Hamar;60.8005328;11.0841394
Solvang Skole;Haugesund;59.418499;5.286613
Storhamar Skole;Hamar;60.8013624;11.0502486
Austmarka Barne- Og Ungdomsskole;Kongsvinger;60.1007697;12.323332
Brandval Skole;Kongsvinger;60.321062;12.006254
Finnskogen Montessoriskole Ba;Kongsvinger;60.2983238;12.2842641
Kongsvinger Montessoriskole Sa;Kongsvinger;60.17325930000001;12.0184654
Langeland Skole;Kongsvinger;60.1985647;11.9918973
Marikollen Skole;Kongsvinger;60.1911318;11.9718448
Roverud Skole;Kongsvinger;60.2581124;12.0630206
Vennersberg Skole;Kongsvinger;60.1759191;12.0270268
Lesja Skule;Lesja;62.1171537;8.8543079
Lesjaskog Skule;Lesja;62.2312113;8.3802796
Engesvea Barne- Og Ungdomsskole;Lillehammer;61.0948726;10.4834214
Hammartun Skole;Lillehammer;61.1125741;10.4630517
Jørstadmoen Skole;Lillehammer;61.1544956;10.3911893
Nordre Ål Skole;Lillehammer;61.1326354;10.4644826
Røyslimoen Skole;Lillehammer;61.0957844;10.5092306
Stiftelsen Lillehammer Steinerskole;Lillehammer;61.0998604;10.4244938
Søre Ål Barneskole;Lillehammer;61.0937316;10.4762316
Vingar Skole;Lillehammer;61.1081794;10.4276023
Vingrom Skole;Lillehammer;61.0480805;10.4322006
Loar Skule;Lom;61.8388169;8.5605566
Hedemarken Friskole;Løten;60.8010225;11.3037854
Jønsrud Skole;Løten;60.8699094;11.3674116
Lund Skole;Løten;60.8313485;11.3125381
Østvang Skole;Løten;60.8229989;11.3532734
Ådalsbruk Skole;Løten;60.7879169;11.3286193
Nord-Aurdal Barneskole;Nord-Aurdal;60.9879904;9.2433618
Valdres Montessoriskule Sa;Nord-Aurdal;60.998427;9.101026000000001
Barhaug Skole;Nord-Fron;61.5985663;9.7297053
Kvam Skole;Steinkjer;64.138733;11.733867
Skåbu Oppvekstsenter Avd Skole;Nord-Fron;61.5293674;9.4162353
Sødorp Skole;Nord-Fron;61.5910945;9.76476
Mo Barne- Og Ungdomsskole;Nord-Odal;60.423664;11.642413
Sand Sentralskole;Nord-Odal;60.390831;11.534826
Nordre Land Kommune 0-24 Torpa Barne- Og Ungdomsskole;Nordre Land;60.9661071;10.1081095
Nordre Land Kommune Dokka Barne- Og Ungdomsskole;Nordre Land;60.83448789999999;10.0756769
Os Skole;Rakkestad;59.440117;11.311685
Fagertun Skole;Rendalen;61.720727;11.195858
Fåvang Skole;Ringebu;61.4554209;10.1994043
Ringebu Skole;Ringebu;61.5334295;10.143338
Venabygd Montessoriskole;Ringebu;61.593842;10.0498864
Brøttum Barne- Og Ungdomsskole;Ringsaker;61.0281513;10.5567884
Fagerlund Skole;Ringsaker;60.8942643;10.9406497
Gaupen Skole;Ringsaker;60.8720405;10.7800238
Hempa Skole;Ringsaker;60.898477;10.9584208
Kirkekretsen Skole;Ringsaker;60.920429;10.906621
Kirkenær Skole;Ringsaker;60.8420306;11.021733
Kylstad Skole;Ringsaker;60.8737667;11.04113
Lismarka Skole;Ringsaker;61.0719002;10.6276989
Moelv Skole;Ringsaker;60.9285917;10.6943234
Mørkved Skole;Ringsaker;60.8702301;10.9592395
Nes Barneskole;Ringsaker;60.801537;10.842971
Stavsberg Skole;Ringsaker;60.8192418;11.0553896
Heidal Skule;Sel;61.7510542;9.3222085
Otta Skole;Sel;61.7737905;9.5417719
Skjåk Barne- Og Ungdomsskule;Skjåk;61.8836922;8.2628386
Arstad Skole;Stange;60.7699303;11.1139698
Breidablikk Skole;Trondheim - Tråante;63.3488639;10.3612663
Hoberg Skole;Stange;60.7718533;11.1347856
Solvin Skole;Stange;60.7331954;11.26021
Stange Skole;Østre Toten;60.6359564;10.9109152
Steinerskolen På Hedemarken Avd Grunnskolen Ottestad;Stange;60.7774681;11.1027464
Vallset Skole;Stange;60.6810849;11.3422031
Koppang Skole;Stor-Elvdal;61.5672189;11.0631423
Fryal Skole;Søndre Land;60.6830283;10.3548711
Odnes Skole;Søndre Land;60.803307;10.169531
Bagn Skule;Sør-Aurdal;60.8235072;9.548629
Hedalen Barne- Og Ungdomsskole;Sør-Aurdal;60.6046541;9.7420634
Midtbygda Og Harpefoss Skule;Sør-Fron;61.5595031;9.9488546
Glommasvingen Skole;Sør-Odal;60.257786;11.67013
Tolga Skole;Tolga;62.4114022;10.9966047
Vingelen Skole;Tolga;62.414454;10.866655
Innbygda Skole;Trysil;61.314827;12.266887
Jordet Skole;Larvik;59.0173881;10.0113318
Trysil Montessoriskole Sa;Trysil;61.1351552;12.4970169
Fåset Skole Og Barnehage Avd Skole;Tynset;62.25926999999999;10.65815
Kvikne Skole;Tynset;62.5610682;10.3238832
Tylldalen Skole;Tynset;62.127633;10.799686
Tynset Barneskole;Tynset;62.2725088;10.7776553
Vang Barne- Og Ungdomsskule;Vang;61.130671;8.592836
Vestre Slidre Skule;Vestre Slidre;61.0875496;8.9835312
Bøverbru Skole;Vestre Toten;60.6648695;10.6813991
Korta Skole;Vestre Toten;60.7203979;10.627863
Raufoss Skole;Vestre Toten;60.7237757;10.599855
Reinsvoll Skole;Vestre Toten;60.6776689;10.6257063
Thune Skole;Vestre Toten;60.6162323;10.6219342
Vågåmo Skule;Vågå;61.8719468;9.0972111
Våler Barne- Og Ungdomsskole;Våler (Innlandet);60.6737368;11.8298135
Hoffsvangen Skole;Østre Toten;60.6843061;10.8414213
Kapp Skole;Østre Toten;60.7118404;10.8778946
Kolbu Skole;Østre Toten;60.6411946;10.7254136
Nordli Skole;Østre Toten;60.741779;10.761918
Toten Montessoriskole;Østre Toten;60.5976576;10.7344939
Totenviken Skole;Østre Toten;60.6451066;11.0050186
Aurvoll Skole;Øyer;61.3142721;10.3070694
Lidar Skule;Øystre Slidre;61.2024225;8.9744619
Rogne Skule;Øystre Slidre;61.0817499;9.1276716
Åmot Barne Og Ungdomsskole;Åmot;61.1402518;11.3679599
Åmot Montessoriskole Sa;Åmot;61.30172390000001;11.4620755
Solør Montessoriskole;Åsnes;60.575068;12.071309
Åsnes Barneskole;Åsnes;60.6111663;12.0181214
Gossen Barne- Og Ungdomsskole Avd Skole;Aukra;62.806707;6.8826449
Julsundet Skole;Aukra;62.7724432;6.9931739
Aure Barne- Og Ungdomsskole;Aure;63.268008;8.5344466
Tustna Barne- Og Ungdomsskole;Aure;63.158431;7.963703
Bodalen Friskole;Averøy;63.0122249;7.5860358
Bruhagen Barneskole;Averøy;63.0492035;7.6377694
Kårvåg Barneskole;Averøy;63.0174751;7.4725179
Eidsdal Skule;Fjord;62.2542451;7.1601384
Stordal Skule;Fjord;62.382125;7.007992
Valldal Skule;Fjord;62.301908;7.259656
Giske Skule;Giske;62.5044883;6.0508172
Godøy Skule;Giske;62.4725098;6.0226814
Valderøy Barneskule;Giske;62.504644;6.130757
Vigra Skule;Giske;62.572816;6.115895
Angvik Skule;Gjemnes;62.897063;8.08902
Batnfjord Skule;Gjemnes;62.8926676;7.677178
Torvikbukt Skule Sa;Gjemnes;62.9420035;7.8590615
Brattvåg Barneskule;Haram;62.6007655;6.4412866
Eidet Skule;Haram;62.546373;6.59721
Grytastranda Montessoriskule;Haram;62.533667;6.354615
Haramsøy Barne- Og Ungdomsskule;Haram;62.6441541;6.2605425
Hildre Montessoriskule Sa;Haram;62.6038155;6.3529263
Søvik Barneskule;Haram;62.54656;6.285734
Bigset Skule;Hareid;62.357025;5.967164
Brandal Friskule;Hareid;62.401344;6.006172
Hareid Skule;Hareid;62.370608;6.02457
Hjørungavåg Skule;Hareid;62.346338;6.058862
Bergsøy Skule;Herøy (Møre Og Romsdal);62.3346064;5.647269
Einedalen Skule;Herøy (Møre Og Romsdal);62.3344917;5.6877307
Leikanger Skule;Herøy (Møre Og Romsdal);62.236633;5.790929
Moltu Skule;Herøy (Møre Og Romsdal);62.2949535;5.6355735
Møre Barne- Og Ungdomsskule;Herøy (Møre Og Romsdal);62.2784638;5.8073176
Nerlandsøy Skule;Herøy (Møre Og Romsdal);62.3409717;5.5855062
Stokksund Barne- Og Ungdomsskule;Herøy (Møre Og Romsdal);62.3030602;5.7301058
Bud Skule;Hustadvika;62.90564000000001;6.9222
Eide Barneskole;Hustadvika;62.917977;7.4455997
Haukås Skole;Bergen;60.4906797;5.3846293
Hustad Skole;Hustadvika;62.96058;7.115704
Jendem Skole;Hustadvika;62.788154;7.0211707
Sylte Skule;Hustadvika;62.829098;7.234932
Tornes Skule;Hustadvika;62.843536;7.032445
Allanengen Skole;Kristiansund;63.1147179;7.7286869
Bjerkelund Skole;Kristiansund;63.086943;7.8820169
Dale Barneskole;Kristiansund;63.123536;7.7898142
Folkeparken Skole;Kristiansund;63.1222598;7.7505026
Frei Skole;Kristiansund;63.0369843;7.7845924
Innlandet Skole;Hadsel;68.557258;15.217526
Nordlandet Barneskole;Kristiansund;63.1077588;7.7561735
Rensvik Skole;Kristiansund;63.095868;7.813852
Bolsøya Skole;Molde;62.7305792;7.3213494
Eidsvåg Barne- Og Ungdomsskole;Molde;62.778045;8.074184
Eresfjord Barne- Og Ungdomsskule;Molde;62.6617782;8.1148537
Kleive Oppvekstsenter Skole;Molde;62.7924124;7.6573138
Kviltorp Skole;Molde;62.7437216;7.233375
Langmyra Skole;Molde;62.7430637;7.1812964
Midsund Skule;Molde;62.6815325;6.6703845
Molde Friskole;Molde;62.7373422;7.1218724
Nordbyen Skole;Molde;62.7551827;7.2228338
Sellanrå Skole;Molde;62.7391966;7.1440242
Skjevik Barne- Og Ungdomsskole;Molde;62.7868336;7.532336
Tøndergård Skole Og Ressurssenter;Molde;62.743326;7.208114
Vistdal Oppvekstsenter Skole;Molde;62.72054099999999;7.9317386
Vågsetra Barne- Og Ungdomsskole;Molde;62.7139085;7.4253729
Årølia Skole;Molde;62.755497;7.291231
Innfjorden Friskole Sa;Rauma;62.4937236;7.5604139
Isfjorden Skole;Rauma;62.577077;7.788514
Måndalen Barne- Og Ungdomsskule;Rauma;62.5309903;7.4358184
Åfarnes Barne- Og Ungdomsskole;Rauma;62.6588821;7.5034956
Åndalsnes Barneskole;Rauma;62.563204;7.6874949
Gursken Oppvekstsenter Avd Skule;Sande;62.2170511;5.6530625
Kvamsøy Barne- Og Ungdomsskule;Sande;62.2006971;5.4140455
Larsnes Skule;Sande;62.2088599;5.5739374
Smøla Barneskole;Smøla;63.4600345;8.0093286
Geiranger Skule;Stranda;62.099674;7.204527
Ringstad Skule;Stranda;62.3074767;6.9358098
Sunnylven Skule;Stranda;62.0847895;6.8706648
Langevåg Skule;Sula;62.4391371;6.2133564
Rørstadmarka Skule;Sula;62.4310488;6.265395
Solevåg Skule;Sula;62.42722;6.31145
Gjøra Oppvekstsenter Avd Skule;Sunndal;62.54787529999999;9.1127479
Løykja Skole;Sunndal;62.652574;8.695233
Sande Skole;Sandefjord;59.1376099;10.2279857
Tredal Skole;Sunndal;62.6667258;8.5331818
Ålvundfjord Skule;Sunndal;62.840684;8.518549
Bøfjorden Og Bæverfjord Oppvekstsenter Avd Bæverfjord Skule;Surnadal;63.02643;8.598329999999999
Mo Oppvekstsenter Avd Skule;Surnadal;62.8767125;8.8802145
Surnadal Barne- Og Ungdomsskule;Surnadal;62.98125;8.716892
Todalen Og Stangvik Oppvekstsenter;Surnadal;62.90216;8.597267
Aure Barneskule;Sykkylven;62.3949467;6.5975492
Hundeidvik Privatskule As;Sykkylven;62.37643000000001;6.433375
Sørestranda Skule;Sykkylven;62.383375;6.550883
Velledalen Montessoriskule As;Sykkylven;62.291885;6.646948
Meisingset Oppvekstsenter Avd Skole;Tingvoll;62.8623369;8.2936804
Straumsnes Barne- Og Ungdomsskole;Tingvoll;63.0357876;8.0393527
Tingvoll Barne- Og Ungdomsskole;Tingvoll;62.9143256;8.1970924
Haddal Skule;Ulstein;62.282304;5.875451
Hasund Skule;Ulstein;62.3167008;5.8433604
Ulstein Skule;Ulstein;62.356774;5.826688
Ulsteinvik Barneskule;Ulstein;62.344812;5.850679
Fiskå Skule;Vanylven;62.100773;5.566612
Myklebust Skule;Vanylven;62.087657;5.740295
Åheim Skule;Vanylven;62.036029;5.533243
Fiksdal Friskule Sa;Vestnes;62.51882999999999;7.12671
Helland Barneskule;Vestnes;62.616256;7.091351
Tomrefjord Skule;Vestnes;62.602138;6.929263
Tresfjord Enspire Skule;Vestnes;62.5194794;7.1274426
Vike Montessoriskule Sa;Vestnes;62.61908279999999;7.148950399999999
Bratteberg Skule;Volda;62.1497344;6.1124774
Dalsfjord Skule;Volda;62.112963;5.938836
Folkestad Skule;Midt-Telemark;59.436525;9.046218
Hornindal Skule;Volda;61.976545;6.51911
Mork Skule;Volda;62.168956;6.025039
Ulvestad Barneskule As;Volda;62.16601559999999;5.931412600000001
Øyra Skule;Volda;62.1482881;6.0789836
Dalane Skule;Ørsta;62.1593822;6.2305895
Hovden Skule;Ørsta;62.185468;6.081063
Sæbø Skule;Alver;60.619174;5.177406
Vartdal Skule;Ørsta;62.298176;6.091452
Velle Skule;Ørsta;62.1953488;6.1277953
Åmås Friskule;Ørsta;62.1819452;6.1963739
Aspøy Skole;Ålesund;62.4721255;6.1460544
Blindheim Barneskole;Ålesund;62.43781;6.357705
Ellingsøy Barne- Og Ungdomsskole;Ålesund;62.493174;6.19572
Emblem Skule;Ålesund;62.437497;6.45461
Flisnes Skole;Ålesund;62.4302661;6.4139077
Harøy Skule;Ålesund;62.77158;6.457897
Hatlane Skole;Ålesund;62.460655;6.271124
Hessa Skole;Ålesund;62.458454;6.130492
Larsgården Skole;Ålesund;62.4747654;6.239191
Lerstad Barneskole;Ålesund;62.468511;6.307165
Møre Barne- Og Ungdomsskule Skodje As;Ålesund;62.484107;6.5067624
Skodje Barne- Og Ungdomsskole Avd Barneskole;Ålesund;62.493139;6.1956365
Spjelkavik Barneskole;Ålesund;62.460561;6.369287
Steinerskolen Ålesund;Ålesund;62.462039;6.266049
Stette Friskule Sa;Ålesund;62.523519;6.6306525
Stiftelsen Møre Barne- Og Ungdomsskule, Ålesund;Ålesund;62.4343013;6.3982646
Stokke Og Vik Skole;Ålesund;62.4954081;6.3265649
Volsdalen Skole;Ålesund;62.4715411;6.1911927
Ørskog Skule;Ålesund;62.4776723;6.8200132
Aalesund International School Sti;Ålesund;62.4655911;6.251226099999999
Åse Skole;Ålesund;62.4637209;6.3304081
Bjarnetjønna Skole;Alstahaug;66.016541;12.6157037
Søvik Oppvekstsenter Avd Skole;Alstahaug;65.9216446;12.4483551
Andenes Skole;Andøy;69.3160729;16.1287824
Bleik Og Omegn Montessori Skolelag;Andøy;69.2729858;15.9650248
Risøyhamn Skole;Andøy;68.968579;15.636839
Åse Montessoriskole;Andøy;69.015781;15.807296
Beiarn Barne- Og Ungdomsskole;Beiarn;66.916132;14.768424
Bindalseidet Skole Sa;Bindal;65.1268844;12.232336
Terråk Skole;Bindal;65.086116;12.367723
Alberthaugen Skole;Bodø;67.274059;14.42673
Alstad Barneskole;Bodø;67.274192;14.481268
Aspåsen Skole;Bodø;67.278264;14.3814433
Bodøsjøen Skole;Bodø;67.2705576;14.4407984
Grønnåsen Skole;Bodø;67.28083;14.46653
Hunstad Barneskole;Bodø;67.28481;14.5395746
Kjerringøy Oppvekstsenter Avd Skole;Bodø;67.51701;14.761825
Løpsmark Skole;Bodø;67.3104829;14.4512237
Misvær Oppvekstsenter Avd Skole;Bodø;67.11930439999999;15.0136669
Mørkvedbukta Skole;Bodø;67.2795874;14.5648885
Mørkvedmarka Skole;Bodø;67.2910513;14.5884512
Rønvik Skole;Bodø;67.2963286;14.4186545
Saltstraumen Skole;Bodø;67.235808;14.624071
Saltvern Skole;Bodø;67.2891967;14.4311788
Skaug Oppvekstsenter Avd Skole;Bodø;67.3872509;14.6363858
Skjerstad Oppvekstsenter Avd Skole;Bodø;67.2330873;15.0165269
Skolen I Væran Avd Skole;Bodø;67.28291850000001;14.4150773
St Eysteins Skole;Bodø;67.2757827;14.3659777
Tverlandet Skole;Bodø;67.2972568;14.7279171
Østbyen Skole;Bodø;67.2803239;14.4093963
Brønnøysund Barneskole;Brønnøy;65.484279;12.222487
Hilstad Barne-Og Ungdomsskole;Brønnøy;65.409529;12.54483
Eidet Skole;Bø;68.73484;14.596156
Steine Skole;Bø;68.6178734;14.4621788
Straume Skole;Bø;68.688083;14.47901
Dønna Barne- Og Ungdomsskole;Dønna;66.107939;12.490327
Løkta Oppvekstsenter Avd Skole;Dønna;66.1492091;12.7284506
Nord-Dønna Montessoriskole;Dønna;66.175489;12.544201
Evenes Skole;Evenes - Evenášši;68.4830049;16.8883717
Sulitjelma Skole;Fauske - Fuossko;67.134484;16.069571
Valnesfjord Skole;Fauske - Fuossko;67.295143;15.177556
Vestmyra Skole;Fauske - Fuossko;67.2643815;15.3770206
Flakstad Barne- Og Ungdomsskole;Flakstad;68.0918472;13.2295923
Vikten Skole;Flakstad;68.138748;13.312834
Inndyr Skole Avd Skole;Gildeskål;67.03615529999999;14.0351118
Nygårdsjøen Oppvekstsenter Avd Skole;Gildeskål;67.1017773;14.3057446
Sandhornøy Skole;Gildeskål;67.1360206;14.0788274
Sørarnøy Skole Og Barnehage Avd Skole;Gildeskål;67.1415195;13.9703605
Grane Barne- Og Ungdomsskole;Grane;65.5344215;13.4001263
Drag Skole;Hábmer - Hamarøy;68.040368;16.08117
Hamarøy Montessoriskole;Hábmer - Hamarøy;68.0233458;15.3490422
Innhavet Oppvekstsenter Avd Skole;Hábmer - Hamarøy;67.9633381;15.9319406
Oppeid Skole;Hábmer - Hamarøy;68.083115;15.6237288
Melbu Skole;Hadsel;68.503361;14.803934
Stokmarknes Skole;Hadsel;68.5664881;14.9067493
Bleikvassli Skole;Hemnes;65.916347;13.807486
Finneidfjord Skole;Hemnes;66.185903;13.791702
Hemnes Sentralskole;Hemnes;66.225854;13.607253
Korgen Sentralskole;Hemnes;66.077643;13.808271
Herøy Skole;Herøy (Nordland);65.97647;12.275334
Leirfjord Barne- Og Ungdomsskole;Leirfjord;66.065339;12.938717
Konsvik Oppvekstsenter Avd Skole;Lurøy;66.49904;13.09218
Kvarøy Oppvekstsenter Skole;Lurøy;66.4858551;12.9605545
Lovund Skole;Lurøy;66.3665553;12.3577187
Onøy Lurøy Oppvekstsenter Avd Skole;Lurøy;66.3983066;12.8683511
Sleneset Oppvekstsenter Skole;Lurøy;66.3635288;12.5942675
Lødingen Skole;Lødingen;68.4091271;15.9757767
Vestbygd Skole;Lødingen;68.347844;15.508176
Bolga Oppvekstsenter Avd Skole;Meløy;66.8023606;13.205873
Enga Skole;Meløy;66.7843739;13.5319175
Glomfjord Skole;Meløy;66.8177981;13.9584396
Halsa Skole;Meløy;66.742114;13.578547
Meløy Oppvekstsenter Avd Skole;Meløy;66.8233041;13.4107259
Neverdal Enspire Skole As;Meløy;66.83453159999999;13.7758067
Spildra Skole;Meløy;66.8633455;13.7266786
Sørvågen Skole;Moskenes;67.889407;13.016659
Ankenes Skole;Narvik;68.417451;17.383271
Ballangen Skole;Narvik;68.3391075;16.825597
Beisfjord Barneskole;Narvik;68.3773915;17.6030129
Bjerkvik Skole;Narvik;68.552259;17.553636
Håkvik Barneskole;Narvik;68.4039596;17.3097678
Kjøpsvik Skole;Narvik;68.0994642;16.3864997
Narvik Montessoriskole;Narvik;68.412662;17.439285
Skistua Barneskole;Narvik;68.4350025;17.4415526
Skjomen Skole;Narvik;68.246395;17.412057
Nesna Skole Avd Nesna;Nesna;66.198574;13.0228596
Båsmo Barneskole;Rana - Raane;66.33534259999999;14.1090756
Dalsgrenda Montessoriskole Sa;Rana - Raane;66.2487556;13.9944585
Frikult Grunnskole As;Rana - Raane;66.3378225;14.0921857
Gruben Barneskole;Rana - Raane;66.3196748;14.1957036
Grønfjelldal Montessoriskole Sa;Rana - Raane;66.3451535;14.7090605
Hauknes Skole;Rana - Raane;66.2855001;14.0542641
Lyngheim Skole;Rana - Raane;66.3198692;14.158431
Selfors Barneskole;Rana - Raane;66.3260453;14.1810297
Skonseng Skole;Rana - Raane;66.3578818;14.3448663
Storforshei Barne- Og Ungdomsskole;Rana - Raane;66.403802;14.5278825
Utskarpen Barne- Og Ungdomsskole;Rana - Raane;66.2929552;13.5636178
Ytteren Skole;Rana - Raane;66.348233;14.1288177
Jektvik Skole;Rødøy;66.6247423;13.2908386
Rødøy Skole;Rødøy;66.6614026;13.0760148
Tjongsfjord Skole;Rødøy;66.6980997;13.4192097
Øresvik Skole;Rødøy;66.462173;13.225498
Røst Barne- Og Ungdomsskole;Røst;67.517863;12.1154871
Rognan Barneskole;Saltdal;67.0972862;15.3915577
Røkland Skole Grunnskolen;Saltdal;66.991539;15.328002
Holmstad Skole;Sortland - Suortá;68.719936;15.153773
Jennestad Montessoriskole;Sortland - Suortá;68.750572;15.302273
Lamarka Skole;Sortland - Suortá;68.685256;15.3884082
Maurnes Skole;Sortland - Suortá;68.7536666;15.4699294
Sigerfjord Skole;Sortland - Suortá;68.646686;15.507666
Sortland Barneskole;Sortland - Suortá;68.6965901;15.404514
Strand Skole;Sortland - Suortá;68.697788;15.4518
Laskestad Skole;Steigen;67.926681;15.020935
Steigenskolen Leines;Steigen;67.735888;14.81105
Steigenskolen Leinesfjord;Steigen;67.7770618;15.0163165
Steigenskolen Nordfold;Steigen;67.762179;15.223982
Røsvik Oppvekstsenter Skole;Sørfold - Fuolldá;67.4780018;15.4616644
Straumen Skole;Sørfold - Fuolldá;67.344047;15.5931639
Husøy Skole;Senja;69.5439037;17.6597625
Elsfjord Montessoriskole Sa;Vefsn;66.10317119999999;13.5437815
Granmoen Skole;Vefsn;65.977084;13.215423
Kulstad Skole;Vefsn;65.8664742;13.1998603
Mosjøen Skole;Vefsn;65.836467;13.2043304
Olderskog Skole;Vefsn;65.8232269;13.2199852
Vega Barne- Og Ungdomsskole;Vega;65.675159;11.951084
Ballstad Skole;Vestvågøy;68.084381;13.538986
Buksnes Skole;Vestvågøy;68.1186061;13.5555038
Bøstad Skole;Vestvågøy;68.239284;13.751981
Eltoft Montessoriskole As;Vestvågøy;68.2413835;13.689078
Fygle Skole;Vestvågøy;68.145669;13.648834
Leknes Skole;Vestvågøy;68.146443;13.619627
Opdøl Montessoriskole Barne Og Ungdomsskole;Vestvågøy;68.186768;13.652838
Svarholt Skole;Vestvågøy;68.137549;13.837688
Vevelstad Sentralskole;Vevelstad;65.701312;12.440747
Værøy Skole;Værøy;67.666406;12.6875706
Gimsøy Skole;Vågan;68.32003;14.1996
Kabelvåg Skole;Vågan;68.2167969;14.4662476
Laukvik Skole;Vågan;68.39038;14.47026
Laupstad Skole;Vågan;68.356392;14.741293
Strauman Oppvekstsenter;Vågan;68.285827;14.347396
Svolvær Skole;Vågan;68.238891;14.5596784
Ørsnes Privatskole;Vågan;68.200513;14.395262
Alsvåg Skole;Øksnes;68.905345;15.265138
Myre Skole;Øksnes;68.9159106;15.0859659
Hattfjelldal Oppvekstsenter Avd Skole;Aarborte - Hattfjelldal;65.5978384;14.000663
Abildsø Skole;Oslo;59.8817366;10.8264847
Ammerud Skole;Oslo;59.9650676;10.8744148
Bakås Skole;Oslo;59.937376;10.9107874
Bekkelaget Skole;Oslo;59.8825292;10.7849609
Berg Skole;Halden;59.1246674;11.2981091
Bestum Skole;Oslo;59.9237086;10.654051
Bjølsen Skole;Oslo;59.9397534;10.7574078
Bjørndal Skole;Oslo;59.8251415;10.8369881
Bjørnsletta Skole;Oslo;59.928654;10.6425735
Bogstad Skole;Oslo;59.9609792;10.6362407
Bolteløkka Skole;Oslo;59.9276451;10.7349896
Bryn Skole;Oslo;59.9144452;10.8230093
Brynseng Skole;Oslo;59.9087469;10.8110299
Bygdøy Skole;Oslo;59.9056108;10.6771206
Bøler Skole;Oslo;59.8838953;10.8491743
Disen Skole;Oslo;59.94825;10.7946777
Ekeberg Skole;Holmestrand;59.4794293;10.3081745
Ellingsrudåsen Skole;Oslo;59.9355404;10.9208346
Fernanda Nissen Skole;Oslo;59.946972;10.769624
Furuset Skole;Oslo;59.9392824;10.8913777
Gamlebyen Skole;Oslo;59.9065777;10.7710763
Godlia Skole;Oslo;59.9072803;10.8468375
Grefsen Skole;Oslo;59.9546418;10.7740032
Grindbakken Skole;Oslo;59.9680628;10.6470207
Grorud Skole;Oslo;59.958356;10.88285
Grünerløkka Skole;Oslo;59.9263962;10.7620568
Hallagerbakken Skole;Oslo;59.8410808;10.7918545
Hans Nielsen Hauge Grunnskole Oslo;Oslo;59.9621385;10.6912239
Hasle Skole;Oslo;59.9219586;10.7897916
Haugen Skole;Oslo;59.9477943;10.9052859
Haugenstua Skole;Oslo;59.9538383;10.9202333
Haukåsen Skole;Oslo;59.9233745;10.863445
Holmen Skole;Oslo;59.953213;10.6753914
Huseby Skole;Oslo;59.9457881;10.6535147
Høybråten Skole;Oslo;59.9467247;10.9267087
Høyenhall Skole;Oslo;59.8991779;10.81295
Ila Skole;Trondheim - Tråante;63.4303821;10.3717905
Jeriko Skole;Oslo;59.933752;10.8860758
Kampen Skole;Stavanger;58.9720155;5.7159438
Karlsrud Skole;Oslo;59.8778455;10.8101561
Kastellet Skole;Oslo;59.8729364;10.7928275
Kjelsås Skole;Oslo;59.9663328;10.7854903
Klemetsrud Skole;Oslo;59.8349166;10.844471
Korsvoll Skole;Oslo;59.9639436;10.7524614
Lakkegata Skole;Oslo;59.9206475;10.7685595
Lambertseter Skole;Oslo;59.8716392;10.8160687
Lilleaker Skole;Oslo;59.923186;10.639382
Lilleborg Skole;Oslo;59.9332473;10.7648266
Lindeberg Skole;Oslo;59.9314545;10.8801598
Linderud Skole;Oslo;59.9405182;10.8341715
Ljabruskolen - Steinerskole For Elever Med Spesielle Behov Sti;Oslo;59.8499145;10.8043963
Ljan Skole;Oslo;59.8469668;10.7865588
Lusetjern Skole;Oslo;59.832486;10.7898316
Lutvann Skole;Oslo;59.9248999;10.8701153
Lycee Francais Rene Cassin Doslo;Oslo;59.9171054;10.7175156
Lysejordet Skole;Oslo;59.9371666;10.6384289
Lønnebakken Skole;Oslo;59.9458532;10.8583003
Løren Skole;Oslo;59.9313577;10.8029223
Majorstuen Skole;Oslo;59.9290061;10.7132113
Manglerud Skole;Oslo;59.8945599;10.823096
Maridalen Skole;Oslo;60.004507;10.764003
Marienlyst Skole;Oslo;59.934957;10.7229028
Mortensrud Skole;Oslo;59.8473923;10.8251317
Munkerud Skole;Oslo;59.8585679;10.8116362
Møllergata Skole;Oslo;59.9185541;10.7501413
Nedre Bekkelaget Skole;Oslo;59.8809596;10.7708405
Nordpolen Skole;Oslo;59.9399108;10.7718683
Nordseter Skole;Oslo;59.8670285;10.7958636
Nordstrand Skole;Oslo;59.8606361;10.7941898
Nordtvet Skole;Oslo;59.9515444;10.8723504
Nordvoll Skole;Oslo;59.9239294;10.8647258
Norlights International School Oslo As;Oslo;59.96161579999999;10.6921527
Nyskolen I Oslo Grunnskole;Oslo;59.8634086;10.8389793
Nøklevann Skole;Oslo;59.8768138;10.8490941
Oppsal Skole;Oslo;59.8979404;10.8440061
Oslo Kommune Språksenteret;Oslo;59.921994;10.770175
Oslo Montessoriskole;Oslo;59.9639147;10.6927522
Prinsdal Skole;Oslo;59.8364455;10.8140134
Refstad Skole;Oslo;59.9377747;10.8055204
Rommen Skole;Oslo;59.9667545;10.9141406
Rosenholm Skole;Oslo;59.8289813;10.7854303
Rudolf Steinerskolen I Oslo Sti;Oslo;59.9493186;10.6568737
Ruseløkka Skole;Oslo;59.9132435;10.7254875
Ryenberget Skole;Oslo;59.8988205;10.8022744
Rødtvet Skole;Oslo;59.9542716;10.8585402
Sagene Skole;Oslo;59.9312174;10.7598896
Seterbråten Skole;Oslo;59.8310685;10.8294371
Sinsen Skole;Oslo;59.9351483;10.7842314
Skjønnhaug Skole;Oslo;59.9288367;10.8768111
Skøyen Skole;Oslo;59.9292402;10.6911537
Slemdal Skole;Oslo;59.9515517;10.6926458
St Sunniva Skole Avd Undervisning;Oslo;59.9187763;10.7452095
Steinerskolen På Nordstrand;Oslo;59.861879;10.79017
Stenbråten Skole;Oslo;59.8525578;10.825315
Stiftelsen Den Tysk-Norske Skolen I Oslo Avd Grunnskole Og Videregående;Oslo;59.9362861;10.7591832
Stiftelsen Montessoriskolen Lyse;Oslo;59.9312396;10.6428908
Stovner Skole;Oslo;59.9565379;10.9269123
Svendstuen Skole;Oslo;59.9583808;10.688866
Sørkedalen Skole;Oslo;60.0172038;10.6136941
Teglverket Skole;Oslo;59.9236874;10.7949647
Tiurleiken Skole;Oslo;59.9625899;10.8939848
Tonsenhagen Skole;Oslo;59.9463367;10.8293339
Toppåsen Skole;Oslo;59.8329456;10.8000707
Trasop Skole;Oslo;59.9056594;10.8490279
Trosterud Skole;Oslo;59.9228462;10.8578215
Tveita Skole;Oslo;59.913698;10.838126
Tøyen Skole;Oslo;59.9147045;10.7732058
Tåsen Skole;Oslo;59.953693;10.7509642
Ullevål Skole;Oslo;59.9422737;10.7326186
Ullevålsveien Skole;Oslo;59.9292785;10.7363218
Uranienborg Skole;Oslo;59.9200769;10.7189385
Vahl Skole;Oslo;59.916692;10.766812
Veitvet Skole;Oslo;59.9417435;10.8543925
Vestli Skole;Oslo;59.9709441;10.9275395
Vetland Skole Grunnskole;Oslo;59.8972682;10.8437798
Vinderen Skole;Oslo;59.9413983;10.7065774
Voksen Skole;Oslo;59.9550546;10.6530682
Vollebekk Skole;Oslo;59.9373465;10.827204
Vålerenga Skole;Oslo;59.9070718;10.7899231
Østensjø Skole;Oslo;59.8994586;10.8325636
Østmarka Skole;Oslo;59.8902324;10.8528971
Årvoll Skole;Oslo;59.9443074;10.8137623
Bjerkreim Skule;Bjerkreim;58.583264;6.075741
Vikeså Skule;Bjerkreim;58.63844;6.092869
Bokn Skule;Bokn;59.2300805;5.4370425
Eigerøy Skole;Eigersund;58.4547651;5.9643724
Gamleveien Skole;Eigersund;58.457081;6.012316
Grøne Bråden Skole;Eigersund;58.469273;6.006713
Helleland Skole;Eigersund;58.532777;6.1332365
Hellvik Skole;Eigersund;58.482663;5.887208
Husabø Skole;Eigersund;58.447471;6.0010075
Rundevoll Skole;Eigersund;58.431532;5.997514
Samfundets Skole Egersund;Eigersund;58.445263;6.004577
Bærland Skole;Gjesdal;58.775943;5.827567
Dirdal Skole;Gjesdal;58.815705;6.218146
Kongstun Kristne Friskole;Gjesdal;58.7781207;5.8357643
Oltedal Skole;Gjesdal;58.826431;6.034382
Solås Skole;Gjesdal;58.7736821;5.8638603
Ålgård Skole;Gjesdal;58.7647275;5.8575365
Austrheim Skole;Haugesund;59.43755;5.281118
Brakahaug Skole;Haugesund;59.401599;5.318846
Gard Skole;Haugesund;59.4280036;5.2667974
Hauge Skole;Fredrikstad;59.2534335;10.9880905
Lillesund Skole;Haugesund;59.4065685;5.2813618
Rossabø Skole;Haugesund;59.4045433;5.2989473
Saltveit Skole;Haugesund;59.468648;5.284942
Skåredalen Skole;Haugesund;59.411453;5.324681
Steinerskolen I Haugesund;Haugesund;59.418452;5.299388
Fister Skule;Hjelmeland;59.1761221;6.0792545
Hjelmeland Skule;Hjelmeland;59.2305331;6.1687922
Årdal Skule;Hjelmeland;59.155904;6.192509
Bø Skule;Midt-Telemark;59.4132312;9.0761357
Høyland Skule;Hå;58.6861557;5.594011
Motland Skule;Hå;58.661481;5.641808
Ogna Skule;Hå;58.517759;5.809038
Varhaug Skule;Hå;58.616247;5.6522916
Vigrestad Storskule;Hå;58.570164;5.701873
Avaldsnes Skole;Karmøy;59.353919;5.280175
Grindhaug Skole;Karmøy;59.258139;5.202383
Haugesund International School Sti;Karmøy;59.38999219999999;5.2448461
Håvik Skole;Karmøy;59.3184161;5.2873946
Kolnes Skole;Karmøy;59.389297;5.372639
Kopervik Skole;Karmøy;59.2879962;5.2945919
Kvalavåg Montessoriskole As;Karmøy;59.32526979999999;5.2071519
Mykje Skole;Karmøy;59.3497782;5.3305008
Norheim Skole;Karmøy;59.379101;5.321386
Sevland Skole;Karmøy;59.272708;5.202154
Skudeneshavn Skole;Karmøy;59.1519812;5.2637278
Stangaland Skole;Karmøy;59.2733857;5.3149587
Sørhåland Barneskole As;Karmøy;59.15524529999999;5.2352909
Torvastad Skole Og Kultursenter;Karmøy;59.38934;5.252592
Veavågen Skole;Karmøy;59.291999;5.226075
Ådland Skole;Karmøy;59.242583;5.202559
Åkra Skole;Karmøy;59.259861;5.190468
Bore Skule;Klepp;58.7883995;5.6034583
Engelsvoll Skule;Klepp;58.77788;5.683958
Kleppe Skule;Klepp;58.7790172;5.6371602
Kleppelunden Skule;Klepp;58.7792072;5.6177442
Orre Skule;Klepp;58.7183868;5.5721641
Orstad Skule;Klepp;58.7871892;5.7131218
Tu Skule;Klepp;58.745375;5.64161
Kvitsøy Skole;Kvitsøy;59.0652309;5.4120202
Heskestad Skule;Lund;58.530813;6.343043
Kiellands Minde Skole;Lund;58.525893;6.497554
Nygård Barneskole;Lund;58.450601;6.552559
Goa Skole;Randaberg;58.9855597;5.6311153
Grødem Skole;Randaberg;59.0103682;5.6536543
Harestad Skole;Randaberg;59.0026265;5.6282129
Aspervika Skole;Sandnes;58.8655585;5.7634909
Austrått Skole;Sandnes;58.8420105;5.7404341
Bogafjell Skole;Sandnes;58.821316;5.750795
Buggeland Skole;Sandnes;58.814702;5.754574
Figgjo Skole;Sandnes;58.7870286;5.8057876
Forsand Skule;Sandnes;58.8974353;6.1327058
Forus Friskole - Bus;Sandnes;58.8838575;5.7389581
Ganddal Skole;Sandnes;58.823177;5.712217
Hana Skole;Sandnes;58.855692;5.7754053
Hommersåk Skole;Sandnes;58.9260621;5.8497511
Høle Barne- Og Ungdomsskule;Sandnes;58.896918;6.017984
Iglemyr Skole;Sandnes;58.8437774;5.7542124
Kleivane Skole;Sandnes;58.8374924;5.774278
Kyrkjevollen Skole;Sandnes;58.926991;5.839175
Lura Skole;Sandnes;58.876059;5.735786
Malmheim Skole;Sandnes;58.8332151;5.6600383
Maudland Skole;Sandnes;58.9189919;5.8721256
Porsholen Skole;Sandnes;58.880862;5.736366
Sandnes Friskole As;Sandnes;58.8238813;5.717138299999999
Sandnes International School As;Sandnes;58.8828251;5.7415339
Sandved Skole;Sandnes;58.8406983;5.7162822
Smeaheia Skole;Sandnes;58.863323;5.722858
Stangeland Skole;Sandnes;58.855087;5.715774
Sviland Skule;Sandnes;58.827659;5.821036
Sørbø Skole;Sandnes;58.825603;5.7306165
Trones Skole;Sandnes;58.85603;5.733868
Vatneli Skole;Sandnes;58.859148;5.772301
Austarheim Skule;Sauda;59.658095;6.37953
Fløgstad Skule;Sauda;59.6545354;6.3621309
Risvoll Skule;Sauda;59.644621;6.311246
Sokndal Skole;Sokndal;58.344054;6.296031
Dysjaland Skule;Sola;58.840719;5.600638
Grannes Skole;Sola;58.9180354;5.6824807
Haga Skole;Sola;58.9372451;5.6047783
Røyneberg Skole;Sola;58.903872;5.66594
Skadberg Skole;Sola;58.8832812;5.6679041
Storevarden Skole;Sola;58.938784;5.574271
Auglend Skole;Stavanger;58.94684;5.726762
Biss Gausel Sti;Stavanger;58.8972309;5.7335555
Biss Sentrum As;Stavanger;58.9753288;5.7126109
Buøy Skole;Stavanger;58.985833;5.734569
Byfjord Skole;Stavanger;58.980259;5.7022731
Eiganes Skole;Stavanger;58.9643697;5.707083
Finnøy Skule;Stavanger;59.1744539;5.8715735
Gausel Skole;Stavanger;58.8981543;5.7336638
Godeset Skole;Stavanger;58.9011588;5.7138553
Hafrsfjord Skole;Stavanger;58.9433298;5.6559184
Hundvåg Skole;Stavanger;58.9965278;5.7338149
Johannes Læringssenter Flerspråklige Barn;Stavanger;58.9673177;5.7551632
Jåtten Skole;Stavanger;58.91544;5.725749
Kristen Friskole As;Stavanger;58.9517458;5.7029362
Kvaleberg Skole;Stavanger;58.944473;5.74471
Kvernevik Skole;Stavanger;58.966746;5.60549
Lassa Skole;Stavanger;58.957486;5.6944977
Lervig Skole;Stavanger;58.9670448;5.757639
Madlamark Skole;Stavanger;58.9498673;5.6779947
Madlavoll Skole;Stavanger;58.9425631;5.6905122
Mosterøy Skole;Stavanger;59.078809;5.669468
Norlights Montessoriskole Stavanger As;Stavanger;58.89365549999999;5.724426100000001
Nylund Skole;Stavanger;58.9650385;5.7505283
Ombo Oppvekstsenter Avdeling Skule;Stavanger;58.9699756;5.7331073
Roaldsøy Skole;Stavanger;58.9934958;5.7641061
Sjernarøy Oppvekstsenter Avdeling Skule;Stavanger;58.9699756;5.7331073
Skeie Skole;Bergen;60.286274;5.3151172
Stavanger Kristne Grunnskole;Stavanger;58.960849;5.691295
Steinerskolen Stavanger Grunnskole;Stavanger;58.938509;5.734847
Storhaug Skole;Stavanger;58.9661971;5.7415281
Tasta Skole;Stavanger;58.9836097;5.6790681
Teinå Skole;Stavanger;58.9900355;5.6814457
Tjensvoll Skole;Stavanger;58.9507804;5.704151
Vardenes Skole;Stavanger;58.995698;5.683015
Vassøy Skole;Stavanger;58.997825;5.786345
Vaulen Skole;Stavanger;58.9310105;5.732326
Vikevåg Skule;Stavanger;59.1033635;5.6984222
Våland Skole;Stavanger;58.962252;5.7322908
Fjelltun Skole;Strand;59.027431;6.0286995
Kfskolen - Jørpeland;Strand;59.027069;6.025578
Nordre Strand Skole;Strand;59.1132;6.000744
Tau Skole;Strand;59.063439;5.924126
Tryggheim Strand As;Strand;59.0671006;5.9203225
Erfjord Skule Avd Skule;Suldal;59.35498;6.21868
Jelsa Oppvekstsenter Avd Skule;Suldal;59.3432404;6.0416758
Marvik Skule Avd Skule;Suldal;59.41090939999999;6.0820712
Sand Skule Avd Skule;Suldal;59.49165199999999;6.2542059
Vinjar Skule Avd Skule;Suldal;59.4889404;6.4967378
Bryne Skule;Time;58.7327749;5.6447463
Frøyland Skule;Time;58.7735847;5.7272009
Hognestad Skule;Time;58.7057022;5.6598874
Jærtun Lutherske Friskule;Time;58.730016;5.664254
Lye Skule;Time;58.7330332;5.7362567
Rosseland Skule;Time;58.730911;5.6595614
Undheim Skule;Time;58.6862285;5.7694407
Frakkagjerd Barneskole;Tysvær;59.413493;5.40524
Førland Skule;Tysvær;59.3947855;5.47831
Førre Skole;Tysvær;59.428192;5.384226
Grinde Skule;Tysvær;59.4288466;5.4606134
Nedstrand Barne- Og Ungdomsskule;Tysvær;59.348863;5.798302
Straumen Skule;Tysvær;59.431135;5.612954
Tysværvåg Barne- Og Ungdomsskule;Tysvær;59.333951;5.485997
Utsira Skole;Utsira;59.305707;4.8877612
Sandeid Oppvekstsenter;Vindafjord;59.5450845;5.8575075
Skjold Skule;Vindafjord;59.506205;5.596689
Vats Skule;Vindafjord;59.491237;5.731826
Vik Oppvekstsenter;Vindafjord;59.5756312;5.7705398
Vikedal Skule;Vindafjord;59.496903;5.90859
Vågen Oppvekstsenter;Vindafjord;59.5756312;5.7705398
Ølen Skule;Vindafjord;59.604518;5.813243
Herre Skole;Bamble;59.1027718;9.5657062
Langesund Barneskole;Bamble;59.004785;9.733766
Rugtvedt Skole;Bamble;59.040016;9.673893
Rønholt Skole;Bamble;58.973909;9.572262
Stathelle Barneskole;Bamble;59.035808;9.705462
Drangedal 10-Årige Skole;Drangedal;59.09819;9.057917
Kroken Skole;Drangedal;58.9706119;9.1610414
Tørdal Skule;Drangedal;59.154031;8.813619
Gimle Skule;Fyresdal;59.186477;8.086589
Hjartdal Montessoriskule Sti;Hjartdal;59.60689379999999;8.7002758
Sauland Skule;Hjartdal;59.620404;8.930894
Helle Skole;Kragerø;58.9039461;9.3710134
Kragerø Skole;Kragerø;58.8674668;9.4089338
Kragerøskjærgården Montessoriskole;Kragerø;58.8580075;9.4779649
Sannidal Skole;Kragerø;58.8934735;9.2939886
Kviteseid Skule;Kviteseid;59.410889;8.4743149
Gvarv Skole;Midt-Telemark;59.3880656;9.1897282
Sauar Friskole;Midt-Telemark;59.41963;9.280634
Kyrkjebygda Oppvekstsenter Avdeling Skule;Nissedal;59.16674;8.50221
Tveit Skule / Nissedal Ungdomsskule;Nissedal;59.0241316;8.5204674
Helgen Montessoriskole;Nome;59.255845;9.35933
Holla 10-Årige Skole;Nome;59.278989;9.262437
Lunde 10-Årige Skole;Nome;59.306893;9.101499
Gransherad Skole;Notodden;59.6927;9.026822
Heddal Barneskole;Notodden;59.5815333;9.1713419
Hjuksebø Montessoriskole Sa;Notodden;59.5087432;9.333044
Høgås Skole;Notodden;59.5628443;9.3031421
Lisleherad Montessoriskole Sa;Notodden;59.5990702;9.2713818
Tinnesmoen Skole;Notodden;59.5712786;9.2589382
Tveiten Skole;Notodden;59.5483354;9.2827194
Bergsbygda Montessoriskole;Porsgrunn;59.085119;9.720866
Borge Skole;Fredrikstad;59.224678;11.045441
Brattås Skole;Færder;59.1958048;10.38974
Brevik Oppvekstsenter Avd Skole;Porsgrunn;59.05669140000001;9.691799099999999
Grønli Skole;Porsgrunn;59.124869;9.655141
Heistadskolene Avd Barn;Porsgrunn;59.1385567;9.6555147
Klevstrand Skole;Porsgrunn;59.117907;9.65119
Langangen Skole;Porsgrunn;59.082114;9.810021
Myrene Skole;Porsgrunn;59.1362024;9.6706104
Sandøya Montessoriskole;Porsgrunn;59.050366;9.729837
Stiftelsen International School Telemark;Porsgrunn;59.1055274;9.6814783
Stridsklev Skole;Porsgrunn;59.111471;9.668901
Tveten Skole;Porsgrunn;59.1168376;9.6975417
Vestsiden Skole;Porsgrunn;59.146152;9.6380182
Flatdal Oppvekstsenter Skole 1-7;Seljord;59.567523;8.568436
Seljord Barne- Og Ungdomsskule Skole 1-10;Seljord;59.4830576;8.6229899
Bratsbergkleiva Skole;Skien;59.2056861;9.6165985
Buer Skole;Skien;59.1691451;9.66189
Bølehøgda Skole;Skien;59.1847816;9.6375989
Gjerpen Barneskole;Skien;59.22536;9.607712
Kilebygda Montessoriskole Sa;Skien;59.10654;9.432559999999999
Kjørbekkhøgda Skole;Skien;59.1782711;9.6157229
Klyve Skole;Skien;59.152148;9.628152
Kollmyr Skole;Skien;59.2132668;9.5546096
Lunde Barneskole;Fredrikstad;59.1616573;10.9330632
Moflata Skole;Skien;59.187281;9.596311
Oasen Skole Grenland As;Skien;59.2072798;9.5679599
Skauen Kristelige Skole;Skien;59.1942334;9.6304571
Skien Kommune Spesialpedagogisk Enhet;Skien;59.2074695;9.6105133
Skotfoss Oppvekstsenter Avd Skole;Skien;59.2154017;9.5251184
Stigeråsen Skole;Skien;59.219115;9.5620603
Venstøp Skole;Skien;59.2474246;9.5714919
Åfoss Skole;Skien;59.198042;9.543717
Atrå Barne- Og Ungdomsskole;Tinn;59.987721;8.736121
Rjukan Barneskole;Tinn;59.879653;8.615192
Tinn Montessoriskole Sa;Tinn;60.0477578;8.8189364
Høydalsmo Skule;Tokke;59.4981467;8.1953745
Tokke Skule;Tokke;59.446297;7.986363
Edland Skule Avd Skule;Vinje;59.73834919999999;7.597175699999999
Rauland Skule Avd Skule;Vinje;59.6945875;8.0646003
Øyfjell Oppvekstsenter Avd Skule;Vinje;59.57484;8.18909
Åmot Skule Avd Skule;Vinje;59.572815;7.9904943
Laksvatn Oppvekstsenter Avd Skole;Balsfjord;69.377178;19.3667836
Malangen Skole;Balsfjord;69.3317693;18.9010924
Nordkjosbotn Skole;Balsfjord;69.216643;19.5628308
Storsteinnes Skole;Balsfjord;69.237018;19.2134314
Setermoen Skole;Bardu;68.8746987;18.3617323
Grov Skole;Dielddanuorri - Tjeldsund;68.678161;17.120938
Ramsund Skole;Dielddanuorri - Tjeldsund;68.493184;16.518401
Sandstrand Montessoriforening;Dielddanuorri - Tjeldsund;68.51828189999999;16.1748426
Skånland Skole;Dielddanuorri - Tjeldsund;68.5802405;16.5829349
Elvetun Skole;Dyrøy;69.0881395;17.6973243
Indre Kåfjord Barne- Og Ungdomsskole;Gáivuotna - Kåfjord - Kaivuono;69.469272;20.920538
Manndalen Skole;Gáivuotna - Kåfjord - Kaivuono;69.5262456;20.5266678
Olderdalen Skole;Gáivuotna - Kåfjord - Kaivuono;69.6051785;20.5344448
Gratangsbotn Skole;Gratangen - Rivtták;68.67260139999999;17.6944891
Montessoriskolen Morgan As;Gratangen - Rivtták;68.69544789999999;17.4912636
Bergseng Skole;Harstad - Hárstták;68.8074824;16.4981755
Harstad Montessoriskole Sa;Harstad - Hárstták;68.7870276;16.5859545
Harstad Skole 1 - 7 Skole;Harstad - Hárstták;68.8037872;16.5411417
Kanebogen Skole;Harstad - Hárstták;68.7796957;16.5591787
Kila Skole;Harstad - Hárstták;68.7337361;16.5632135
Medkila Skole;Harstad - Hárstták;68.7593987;16.5414041
Seljestad Barneskole;Harstad - Hárstták;68.7868455;16.5323163
Sørvik Skole;Harstad - Hárstták;68.683497;16.527067
Øyriket Oppvekstsenter Avd Skole;Harstad - Hárstták;69.0144072;16.4725171
Andørja Montessoriskole;Ibestad;68.917851;17.165543
Ibestad Skole;Ibestad;68.785074;17.157938
Hansnes Barne- Og Ungdomsskole;Karlsøy;69.9613128;19.6068772
Vannvåg Oppvekstsenter Avd Skole;Karlsøy;70.07301079999999;19.9786927
Borkenes Skole;Kvæfjord;68.773333;16.179925
Kvænangen Barne- Og Ungdomsskole;Kvænangen;69.9320029;22.041418
Lavangen Skole;Loabák - Lavangen;68.746774;17.813489
Eidebakken Skole;Lyngen;69.575713;20.196784
Lenangen Skole;Lyngen;69.813049;20.0248504
Lyngsdalen Oppvekstsenter Avdeling Skole;Lyngen;69.72161899999999;20.0580352
Bjørkeng Oppvekstsenter Avd Skole;Målselv;69.027974;19.2962776
Fagerlidal Skole;Målselv;69.0745071;18.5378118
Karlstad Oppvekstsenter Avd Skole;Målselv;69.2130875;18.461866
Mellembygd Kultur Og Oppvekstsenter Avd Skole;Målselv;69.0225524;18.8540388
Olsborg Skole;Målselv;69.1493538;18.5969064
Sameskolen I Troms;Målselv;69.100786;18.58841
Øvergård Montessoriskole;Målselv;69.021238;19.447656
Moan Skole;Nordreisa - Ráisa - Raisi;69.7700995;21.0462411
Reisa Montessoriskole;Nordreisa - Ráisa - Raisi;69.745537;21.111743
Rotsundelv Skole;Nordreisa - Ráisa - Raisi;69.7863579;20.7049638
Straumfjordnes Skole;Nordreisa - Ráisa - Raisi;69.868798;21.213897
Salangen Kommune Salangen Skole;Salangen;68.8740688;17.8434515
Berg Montessoriskole;Senja;69.44718;17.290889
Botnhamn Skole Grunnskole 1.-10.;Senja;69.5008945;17.870606
Finnsnes Barneskole;Senja;69.2350505;17.9997604
Gibostad Barne- Og Ungdomsskole;Senja;69.3545246;18.0635699
Gryllefjord Skole;Senja;69.3628222;17.045179
Kårvik Skole;Senja;69.391301;18.1823874
Medby Skole;Senja;69.280904;17.051599
Rossfjord Barne- Og Ungdomsskole;Senja;69.3654409;18.3273322
Senja Montessoriskole;Senja;69.5048307;17.6274432
Senjahopen Skole;Senja;69.496202;17.484438
Silsand Barneskole;Senja;69.2458439;17.9490142
Stonglandet Skole;Senja;69.08686;17.187995
Trollvik Skole;Senja;69.287348;17.994386
Vikstranda Skole;Senja;69.1720039;17.7505896
Skjervøy Barneskole;Skjervøy;70.033796;20.9688528
Hatteng Skole;Storfjord - Omasvuotna - Omasvuono;69.2731478;19.9624061
Skibotn Skole;Storfjord - Omasvuotna - Omasvuono;69.386004;20.2776341
Longyearbyen Skole Grunnskole;Svalbard;78.2103398;15.6130256
Sørreisa Barneskole;Sørreisa;69.1453638;18.1598371
Bjerkaker Skole;Tromsø;69.6345244;18.9235526
Borgtun Skole;Tromsø;69.6746471;18.9686452
Ekrehagen Skole Adventistsamfunnets Grunnskoler;Tromsø;69.685891;18.9551534
Ersfjordbotn Skole;Tromsø;69.693853;18.619731
Fagereng Skole;Tromsø;69.6429364;18.904994
Gyllenborg Skole;Tromsø;69.6521191;18.9508972
Hamna Skole;Tromsø;69.7030757;18.9785783
Hillesøyskolen Brensholmen Skole;Tromsø;69.598864;18.04764
Kaldfjord Skole;Tromsø;69.6830951;18.7385364
Krokelvdalen Skole;Tromsø;69.6813901;19.0735787
Lakselvbukt Skole;Tromsø;69.433859;19.645343
Lunheim Skole;Tromsø;69.6713787;19.041432
Mortensnes Skole;Tromsø;69.683274;18.943269
Prestvannet Skole;Tromsø;69.659956;18.9438359
Ramfjord Skole;Tromsø;69.5591638;19.1855435
Reinen Skole;Tromsø;69.6352266;18.967873
Sandnessund Skole;Tromsø;69.6968572;18.8790302
Selnes Skole;Tromsø;69.6876092;18.8470648
Skittenelv Skole;Tromsø;69.775706;19.333237
Skjelnan Skole;Tromsø;69.6905019;19.0809572
Slettaelva Skole;Tromsø;69.7030731;18.8945209
Solneset Skole;Tromsø;69.6959225;18.9558043
Stakkevollan Skole;Tromsø;69.694031;18.9926901
Steinerskolen I Tromsø Sti;Tromsø;69.6409638;18.9347625
Stiftelsen Tromsø International School;Tromsø;69.681299;18.9655023
Storelva Skole;Tromsø;69.684588;18.7966386
Straumsbukta Skole;Tromsø;69.5765;18.628501
Tromsdalen Skole;Tromsø;69.6472611;18.9943092
Trondjord Skole;Tromsø;69.840387;18.865928
Vikran Skole;Tromsø;69.542975;18.779669
Workinnmarka Skole;Tromsø;69.6672365;18.9347369
Lauvsnes Skole;Flatanger;64.497828;10.906349
Utvorda Skole;Flatanger;64.584318;10.990721
Frosta Skole;Frosta;63.5865716;10.7372608
Dyrøy Oppvekstsenter Avd Skole;Frøya;63.7967879;8.6861788
Mausund Oppvekstsenter Avd Skole;Frøya;63.7967879;8.6861788
Nabeita Skole;Frøya;63.697582;8.791313
Nordskag Oppvekstsenter Avd Skole;Frøya;63.7967879;8.6861788
Sistranda Barneskole;Frøya;63.7303344;8.8288995
Grong Barne- Og Ungdomsskole;Grong;64.4647501;12.3102764
Harran Oppvekstsenter Avdeling Skole;Grong;64.5654615;12.5012686
Halsa Barne- Og Ungdomsskole;Heim;63.1199545;8.322643
Sodin Skole;Heim;63.2919435;9.0813117
Svanem Skole;Heim;63.394543;8.983378
Barman Oppvekstsenter Avd Skole;Hitra;63.6219542;8.8507927
Fillan Skole;Hitra;63.6027148;8.9750119
Knarrlagsund Oppvekstsenter Avd Skole;Hitra;63.66509130000001;9.0780213
Strand Oppvekstsenter Avd Skole;Hitra;63.535385;8.4012567
Holtålen Kommune Haltdalen Oppvekstsenter Avd Skole;Holtålen;62.92110160000001;11.1682454
Holtålen Kommune Hov Skole;Holtålen;62.84242279999999;11.2909801
Høylandet Barne- Og Ungdomsskole;Høylandet;64.625102;12.290765
Oppvekstsenter Vest Skole;Inderøy;63.8637054;11.1523594
Røra Skole;Inderøy;63.8603735;11.3974124
Sakshaug Skole;Inderøy;63.879187;11.287588
Sandvollan Skole;Inderøy;63.9497745;11.3339617
Skarnsundet Montessoriskole Sa;Inderøy;63.81895729999999;11.0067612
Mælan Skole;Indre Fosen;63.75313;10.132458
Skaugdalen Montessoriskole Sa;Indre Fosen;63.6519697;10.1476325
Stadsbygd Skole;Indre Fosen;63.511834;10.001422
Testmann Minne Skole;Indre Fosen;63.6805398;10.6056591
Vanvikan Skole;Indre Fosen;63.555811;10.221984
Åsly Skole;Indre Fosen;63.586873;9.962247
Leka Barne- Og Ungdomsskole;Leka;65.094337;11.7067
Ekne Barneskole;Levanger - Levangke;63.70140419999999;11.0427757
Frol Barneskole;Levanger - Levangke;63.74560630000001;11.3204698
Halsan Barneskole;Levanger - Levangke;63.7242883;11.308733
Markabygda Montessoriskole Sa;Levanger - Levangke;63.6374448;11.2780083
Skogn Barne- Og Ungdomsskole;Levanger - Levangke;63.69918;11.2037816
Vårtun Kristne Oppvekstsenter Sa;Levanger - Levangke;63.7407007;11.2516278
Ytterøy Barne- Og Ungdomsskole;Levanger - Levangke;63.69918;11.2037816
Åsen Barne- Og Ungdomsskole;Levanger - Levangke;63.61183089999999;11.050696
Lierne Kommune - Stortangen Skole;Lierne;64.46096;13.598644
Lierne Kommune - Sørli Skole;Lierne;64.2230369;13.8355535
Hommelvik Skole;Malvik;63.4122878;10.8055642
Saksvik Skole;Malvik;63.4346685;10.6022059
Sveberg Skole;Malvik;63.422365;10.759203
Vikhammer Skole;Malvik;63.4385187;10.6362753
Brekkåsen Skole;Melhus;63.270209;10.2325328
Eid Skole;Melhus;63.1695225;10.1130152
Gimse Skole;Melhus;63.286281;10.263342
Gåsbakken Skole;Melhus;63.116847;9.969166
Høyeggen Skole;Melhus;63.2871343;10.296127
Lundamo Skole;Melhus;63.1512245;10.2877632
Rosmælen Skole;Melhus;63.226405;10.273746
Meråker Skole;Meråker;63.413249;11.733703
Budal Oppvekstområde Avd Skole;Midtre Gauldal;62.88358400000001;10.4832677
Singsaas Oppvekstområde Avd Skole;Midtre Gauldal;62.9561801;10.7308071
Soknedal Skole;Midtre Gauldal;62.955976;10.189387
Støren Barneskole;Midtre Gauldal;63.0336614;10.2866913
Bangsund Skole;Namsos - Nåavmesjenjaelmie;64.39210589999999;11.3975063
Bjørkly Skole;Namsos - Nåavmesjenjaelmie;64.4106106;11.4747427
Høknes Barneskole;Namsos - Nåavmesjenjaelmie;64.47377829999999;11.5344912
Jøa Barne- Og Ungdomsskole;Namsos - Nåavmesjenjaelmie;64.6522528;11.265237
Namdalseid Skole;Namsos - Nåavmesjenjaelmie;64.2406048;11.2085927
Namsos Barneskole;Namsos - Nåavmesjenjaelmie;64.4705328;11.5145775
Otterøy Oppvekstsenter Avd Skole;Namsos - Nåavmesjenjaelmie;64.5398738;11.2668408
Sørenget Oppvekstsenter Avd Skole;Namsos - Nåavmesjenjaelmie;64.530239;11.5417422
Vestbyen Skole;Namsos - Nåavmesjenjaelmie;64.4701259;11.4711791
Namsskogan Skole;Namsskogan;64.9250685;13.161329
Austafjord Skole;Nærøysund;64.91787;10.942743
Foldereid Oppvekstsenter Avd Skole;Nærøysund;64.9611923;12.1780318
Gravvik Oppvekstsenter Avd Skole;Nærøysund;64.98986889999999;11.7296439
Kolvereid Skole;Nærøysund;64.8632685;11.597365
Nærøysundet Skole;Nærøysund;64.857266;11.288739
Rørvik Skole;Nærøysund;64.8711255;11.2391862
Val Skoler As Avd Vgs;Nærøysund;64.9135214;10.5378601
Aune Barneskole;Oppdal;62.596561;9.683402
Drivdalen Skole;Oppdal;62.534208;9.615784
Vollan Skole;Oppdal;62.575543;9.6342
Evjen Skole;Orkland;63.287256;9.840898
Gjølme Skole;Orkland;63.3178382;9.8063251
Grøtte Skole;Orkland;63.2612401;9.8110749
Lensvik Skole;Orkland;63.5057889;9.8234578
Lysheim Skole;Horten;59.3832666;10.4139492
Løkken Verk Montessoriskole Sa;Orkland;63.12642109999999;9.7071875
Meldal Barne- Og Ungdomsskole;Orkland;63.0424163;9.7016376
Orkanger Barneskole;Orkland;63.3065903;9.851979
Aa Skole;Orkland;63.399166;9.502278
Årlivoll Skole;Orkland;63.171584;9.744006
Strand Barne- Og Ungdomsskole;Osen;64.322437;10.456993
Hunn Skole;Overhalla;64.462423;11.765572
Overhalla Barne- Og Ungdomsskole;Overhalla;64.497881;11.962529
Overhalla Montessoriskole Sa;Overhalla;64.4644227;12.0544589
Rennebu Barne- Og Ungdomsskole;Rennebu;62.8295953;10.0064129
Voll Skole As;Rennebu;62.87648549999999;9.8377602
Rindal Skole;Rindal;63.0583209;9.2115405
Brekken Skole;Røros - Rosse;62.649464;11.864231
Glåmos Skole;Røros - Rosse;62.67279599999999;11.4240792
Røros Skole;Røros - Rosse;62.57776729999999;11.3699308
Røyrvik Oppvekstsenter Avdeling Skole;Raarvihke - Røyrvik;64.8840161;13.5625541
Bell Skole;Selbu;63.228164;11.033625
Selbustrand Skole;Selbu;63.26888;11.007719
Buvik Skole;Skaun;63.3110141;10.1772213
Børsa Skole;Skaun;63.325663;10.0663487
Venn Oppvekstsenter Avd Skole;Skaun;63.2503115;10.0504839
Snåsa Montessoriskole Sa;Snåase - Snåsa;64.2786239;12.5272364
Snåsa Skole;Snåase - Snåsa;64.246639;12.364104
Åarjel-Saemiej Skuvle;Snåase - Snåsa;64.2485067;12.3589346
Beitstad Skole;Steinkjer;64.109821;11.3897057
Binde Skole;Steinkjer;64.092039;11.713924
Byafossen Skole;Steinkjer;64.0291596;11.5426397
Egge Barneskole;Steinkjer;64.02857;11.48369
Folla Skole;Steinkjer;63.986245;11.106809
Henning Skole;Steinkjer;63.960155;11.611803
Lø Skole;Steinkjer;63.9984638;11.4867169
Malm Skole;Steinkjer;64.0694245;11.2154601
Mære Skole;Steinkjer;63.9355847;11.4299124
Ogndal Skole;Steinkjer;64.026821;11.66895
Steinkjer Montessoriskole;Steinkjer;64.0144;11.477604
Steinkjer Skole;Steinkjer;64.0116691;11.5005439
Elvran Skole;Stjørdal;63.392998;11.07255
Fagerhaug International School As;Stjørdal;63.4712526;10.9456154
Fagerhaug Kristne Skole Sa;Stjørdal;63.4712526;10.9456154
Forradal Oppvekstsenter Skole;Stjørdal;63.49635699999999;11.356232
Fosslia Skole;Stjørdal;63.480968;10.941482
Halsen Barneskole;Stjørdal;63.472332;10.927685
Haraldreina Skole;Stjørdal;63.461935;10.975921
Hegra Barneskole;Stjørdal;63.47003;11.11003
Kvislabakken Skole;Stjørdal;63.482646;10.898398
Lånke Skole;Stjørdal;63.441752;10.939151
Skatval Skole;Stjørdal;63.5097475;10.8289858
Skjelstadmark Oppvekstsenter Skole;Stjørdal;63.51710039999999;11.0843112
Adventkirken Skole Nidelven;Trondheim - Tråante;63.4254857;10.3905494
Birralee International School Trondheim As Avd Skole;Trondheim - Tråante;63.42718720000001;10.3899759
Bispehaugen Skole;Trondheim - Tråante;63.4317327;10.4152158
Bratsberg Skole;Trondheim - Tråante;63.349667;10.480921
Brundalen Skole;Trondheim - Tråante;63.417847;10.4786468
Byåsen Skole;Trondheim - Tråante;63.399431;10.358369
Charlottenlund Barneskole;Trondheim - Tråante;63.4264795;10.4882245
Dalgård Skole Og Ressurssenter;Trondheim - Tråante;63.3953468;10.3421019
Eberg Skole;Trondheim - Tråante;63.4185529;10.4394758
Flatåsen Skole;Trondheim - Tråante;63.3761168;10.3393667
Hallset Skole;Trondheim - Tråante;63.3923226;10.367412
Hansbakken Skole;Trondheim - Tråante;63.4288842;10.5428569
Heimdal Friskole, Kristen Grunnskole Heimdal;Trondheim - Tråante;63.36138339999999;10.3519884
Huseby Barneskole - Ac Møller Tegnspråksenter;Trondheim - Tråante;63.363169;10.351354
Hårstad Skole;Trondheim - Tråante;63.351136;10.383558
Kattem Skole;Trondheim - Tråante;63.3452158;10.3341327
Lade Skole;Trondheim - Tråante;63.4468443;10.4366242
Lilleby Skole;Trondheim - Tråante;63.4406436;10.4354625
Nardo Skole;Trondheim - Tråante;63.4068508;10.4168093
Nidarvoll Skole;Trondheim - Tråante;63.3991575;10.4064295
Nyborg Skole;Trondheim - Tråante;63.4103572;10.3526916
Nypvang Skole;Trondheim - Tråante;63.331413;10.300051
Okstad Skole;Trondheim - Tråante;63.3813237;10.3796786
Ranheim Skole;Trondheim - Tråante;63.430032;10.522989
Romolslia Skole;Trondheim - Tråante;63.3805088;10.364326
Rosten Skole;Trondheim - Tråante;63.3590806;10.3803886
Rye Skole;Trondheim - Tråante;63.419686;10.144875
Singsaker Skole;Trondheim - Tråante;63.4232749;10.4134132
Sjetne Skole;Trondheim - Tråante;63.36809;10.395213
Solbakken Skole;Trondheim - Tråante;63.4029696;10.5240919
Spongdal Skole;Trondheim - Tråante;63.3545798;10.1639888
Stabbursmoen Skole;Trondheim - Tråante;63.3538291;10.3499481
Stavset Skole;Trondheim - Tråante;63.3867863;10.3325184
Steindal Skole;Trondheim - Tråante;63.401082;10.431042
Steinerskolen I Trondheim Grunnskole;Trondheim - Tråante;63.430361;10.372582
Stiftelsen Steinerskolen Rotvoll;Trondheim - Tråante;63.4395517;10.4855429
Stiftelsen Trondheim International School;Trondheim - Tråante;63.4290426;10.4129556
Stiftelsen Trondheim Kristne Grunnskole, Tomasskolen;Trondheim - Tråante;63.4294197;10.4140159
Strindheim Skole;Trondheim - Tråante;63.432415;10.455516
Sørborgen Skole;Trondheim - Tråante;63.3053692;10.4615558
Tanem Skole;Trondheim - Tråante;63.3071831;10.4261277
Tonstad Skole;Trondheim - Tråante;63.3629661;10.3902424
Trondheim Montessori;Trondheim - Tråante;63.439327;10.483033
Utleira Skole;Trondheim - Tråante;63.3892185;10.4271671
Vikåsen Skole;Trondheim - Tråante;63.412619;10.53793
Åsheim Barneskole;Trondheim - Tråante;63.3507381;10.3429667
Åsvang Skole;Trondheim - Tråante;63.4114706;10.452474
Åsveien Skole Og Ressurssenter;Trondheim - Tråante;63.414751;10.369812
Tydal Barne- Og Ungdomsskole;Tydal;63.041537;11.669671
Helgådal Montessori Sa;Verdal;63.82074850000001;11.9036771
Stiklestad Skole;Verdal;63.803187;11.565922
Verdalsøra Barneskole;Verdal;63.800392;11.485393
Vinne Skole;Verdal;63.774366;11.490492
Vuku Barne- Og Ungdomsskole;Verdal;63.775678;11.739301
Ørmelen Skole;Verdal;63.791799;11.469068
Botngård Barneskole;Ørland;63.764131;9.815578
Brekstad Barneskole;Ørland;63.6889084;9.6613587
Fagerenget Montessoriskole Sa;Ørland;63.8737186;9.8853907
Opphaug Skole;Ørland;63.7264741;9.6938933
Vallersund Oppvekstsenter;Ørland;63.8515203;9.7456223
Brandsfjord Barne- Og Ungdomsskole;Åfjord;64.188039;10.421431
Stokksund Grunnskole Og Sfo;Åfjord;64.0377007;10.0588711
Åset Skole;Åfjord;63.9632751;10.2228609
Føynland Skole;Færder;59.236384;10.446737
Labakken Skole;Færder;59.2381764;10.4000978
Lindhøy Skole;Færder;59.1088807;10.4020153
Oserød Skole;Færder;59.1995544;10.4392546
Steinerskolen I Vestfold;Færder;59.2397727;10.3951564
Teie Skole;Færder;59.252161;10.4025804
Torød Skole;Færder;59.1821281;10.4404474
Botne Skole;Holmestrand;59.4957927;10.2569404
Galleberg Skole;Holmestrand;59.6276658;10.2153173
Hof Skole;Holmestrand;59.5384492;10.0756699
Holmestrand Internasjonale Montessoriskole Sti;Holmestrand;59.4899189;10.315035
Kjeldås Skole;Holmestrand;59.650464;10.236676
Kleiverud Skole;Holmestrand;59.5115241;10.2821046
Klokkerjordet Skole;Holmestrand;59.5864884;10.2147766
Selvik Skole;Holmestrand;59.5585641;10.2805014
Fagerheim Skole;Horten;59.4255408;10.3725326
Granly Skole;Tønsberg;59.2905416;10.4164836
Horten Montessoriskole Sa;Horten;59.4354094;10.4298526
Lillås Skole;Horten;59.4212316;10.4611278
Nordskogen Skole;Horten;59.4168608;10.453972
Sentrum Skole;Horten;59.4140926;10.4787551
Åsgården Skole;Horten;59.3481173;10.4551558
Fagerli Skole;Larvik;59.0703301;10.0412548
Frøy Skole;Larvik;59.0616058;10.0497878
Hedrum Barneskole;Larvik;59.0874679;10.0721721
Hvarnes Skole;Larvik;59.28855;9.935703
Kongshaugen Kristne Grunnskole;Larvik;59.103408;10.11312
Kvelde Skole;Larvik;59.1908542;9.968291
Langestrand Skole;Larvik;59.049032;10.011379
Lardal Skole;Larvik;59.3997571;9.9654572
Mesterfjellet Skole;Larvik;59.0487291;10.0413863
Sky Skole;Larvik;59.0531721;9.9851643
Stavern Skole;Larvik;58.9965426;10.0333537
Tjodalyng Skole;Larvik;59.0548381;10.1273996
Valby Skole;Larvik;59.0449115;10.0912992
Østre Halsen Skole;Larvik;59.036599;10.065591
Andebu Skole;Sandefjord;59.3059262;10.1734982
Bokemoa Skole;Sandefjord;59.220995;10.290115
Byskolen;Sandefjord;59.131114;10.2227377
Fevang Skole;Sandefjord;59.19092;10.229804
Framnes Skole;Sandefjord;59.119596;10.237046
Gokstad Skole;Sandefjord;59.132103;10.252682
Haukerød Skole;Sandefjord;59.146196;10.186502
Helgerød Skole;Sandefjord;59.150727;10.283769
Høyjord Skole;Sandefjord;59.3671462;10.1376266
Kodal Skole;Sandefjord;59.2156186;10.1393431
Krokemoa Skole;Sandefjord;59.133741;10.17318
Melsom Skole;Sandefjord;59.2319766;10.3384103
Moe Skole;Sandefjord;59.1428777;10.1981584
Mokollen Skole;Sandefjord;59.145127;10.211794
Mosserød Skole;Sandefjord;59.1477028;10.2089036
Ormestad Skole;Sandefjord;59.1163765;10.2552477
Skagerak International School Sti;Sandefjord;59.11993580000001;10.2311224
Store Bergan Skole;Sandefjord;59.101624;10.20823
Unneberg Skole;Sandefjord;59.1529882;10.2513993
Vennerød Skole;Sandefjord;59.269629;10.237493
Vesterøy Skole;Sandefjord;59.095096;10.261853
Virik Skole;Sandefjord;59.125482;10.206827
Barkåker Skole;Tønsberg;59.316475;10.392
Bjerkely Skole;Tønsberg;59.3851272;10.364989
Byskogen Kombinerte Skole;Tønsberg;59.2824623;10.4182461
Eik Skole;Tønsberg;59.2936805;10.4252987
Elihu Kristne Grunnskole;Tønsberg;59.268361;10.443658
Husvik Skole;Tønsberg;59.2573023;10.4739354
Kirkevoll Skole;Bergen;60.2650217;5.3473818
Presterød Skole;Tønsberg;59.2742001;10.4600487
Ramnes Skole;Tønsberg;59.3553248;10.2438963
Ringshaug Skole;Tønsberg;59.2847552;10.4873148
Røråstoppen Skole;Tønsberg;59.3707243;10.2792563
Sandeåsen Skole;Tønsberg;59.2782177;10.4491411
Sem Skole;Tønsberg;59.285461;10.33206
Skagerak International School, Tønsberg As;Tønsberg;59.2705435;10.4057618
Solerød Skole;Tønsberg;59.3712932;10.364377
Træleborg Skole;Tønsberg;59.2645065;10.4228133
Tønsberg Montessori Skole Sti;Tønsberg;59.3317231;10.4243069
Vear Skole;Tønsberg;59.2592864;10.3598661
Volden Skole;Tønsberg;59.313054;10.49462
Alversund Skule;Alver;60.5663411;5.2354927
Eikanger Skule;Alver;60.60908;5.388927
Grasdal Skule;Alver;60.5502522;5.2130291
Hordabø Skule;Alver;60.7009374;4.9282366
Knarvik Barneskule;Alver;60.5500257;5.2906262
Leiknes Skule;Alver;60.571752;5.378869
Lindås Barneskule;Alver;60.7339925;5.1639957
Manger Skule;Alver;60.6414592;5.0386468
Nordhordland Kristne Grunnskole;Alver;60.5647041;5.2439089
Ostereidet Barneskule;Alver;60.629972;5.483499
Rossland Skule;Alver;60.560905;5.053152
Sagstad Skule;Alver;60.521669;5.225195
Seim Skule;Alver;60.615688;5.2716207
Skodvin Montessoriskule;Alver;60.6948657;5.2297831
Vestbygd Skule;Alver;60.5287972;5.1594242
Askvoll Skule;Askvoll;61.346895;5.091652
Atløy Skule;Askvoll;61.326374;5.023835
Bulandet Skule;Askvoll;61.28464;4.619131
Gjelsvik Skule;Askvoll;61.461907;5.36552
Holmedal Montessoriskule;Askvoll;61.3605705;5.1877516
Davanger Skole;Askøy;60.471139;5.101429
Erdal Barneskole;Askøy;60.443392;5.227534
Fauskanger Barne- Og Ungdomsskule;Askøy;60.5244775;5.0294861
Florvåg Skole;Askøy;60.419507;5.236091
Follese Skole;Askøy;60.408048;5.162593
Hanøy Skole;Askøy;60.447588;5.088338
Haugland Skole;Askøy;60.450334;5.157928
Hetlevik Skole;Askøy;60.424689;5.149266
Hop Skole;Askøy;60.476189;5.214071
Kleppe Skole;Askøy;60.4234868;5.2010815
Kleppestø Barneskole;Askøy;60.411739;5.219916
Strusshamn Skole;Askøy;60.4059786;5.1917301
Træet Skule;Askøy;60.5091049;5.0790735
Tveit Skole;Askøy;60.452873;5.133617
Aurland Barne- Og Ungdomsskule;Aurland;60.9036125;7.1972214
Kolbeinsvik Montessoriskule;Austevoll;60.043201;5.199342
Selbjørn Skule;Austevoll;60.00518;5.19822
Storebø Skule;Austevoll;60.095141;5.2238737
Kaland Skule;Austrheim;60.8011;4.999752
Årås Skule;Austrheim;60.7797216;4.9366158
Alvøen Skole;Bergen;60.3645312;5.187516
Apeltun Skole;Bergen;60.2970617;5.3417133
Aurdalslia Skole;Bergen;60.3077371;5.2817336
Bergen Kristne Grunnskole;Bergen;60.338955;5.320512
Bjørgvin Montessoriskole;Bergen;60.34995;5.35078
Bjørndalsskogen Skole;Bergen;60.3481221;5.2431481
Bønes Skole;Bergen;60.332453;5.308696
Christi Krybbe Skoler;Bergen;60.3966213;5.3282817
Damsgård Skole;Bergen;60.382029;5.302015
Eidsvåg Skole;Bergen;60.436853;5.306215
Fjellsdalen Skole;Bergen;60.3350587;5.2944897
Flaktveit Skole;Bergen;60.4639794;5.3591602
Fridalen Skole;Bergen;60.3637679;5.3589845
Garnes Skule;Bergen;60.44197;5.4636201
Haukedalen Skole;Bergen;60.4651139;5.3012684
Haukeland Skole;Bergen;60.3800578;5.3611859
Hellen Skole;Bergen;60.4256145;5.2979683
Hjellestad Skole;Bergen;60.2575806;5.2538213
Holen Skole;Bergen;60.3897144;5.2833266
Hordvik Skole;Bergen;60.5199197;5.3100645
International School Of Bergen Avd Skole;Bergen;60.2948011;5.280665099999999
Kaland Skole;Bergen;60.27956;5.406729
Kalvatræet Skole;Bergen;60.445735;5.320663
Kjøkkelvik Skole;Bergen;60.3738648;5.2309805
Kringlebotn Skole;Bergen;60.32841;5.3718516
Krohnengen Skole;Bergen;60.4006155;5.3283371
Krokeide Skole;Bergen;60.2327461;5.2956851
Kronstad Oppveksttun Skole;Bergen;60.3755622;5.3477529
Kyrkjekrinsen Skole;Bergen;60.4760506;5.3429962
Landås Skole;Bergen;60.3623338;5.3702454
Li Skole;Bergen;60.4645669;5.3512125
Liland Skole;Bergen;60.2858581;5.2462082
Loddefjord Skole;Bergen;60.363746;5.231251
Lone Skule;Bergen;60.3763056;5.45561
Lyshovden Oppveksttun Avd Skole;Bergen;60.3478277;5.3004568
Løvås Oppveksttun - Skole;Bergen;60.353598;5.291919
Mathopen Skole;Bergen;60.334528;5.2108892
Midtun Skole;Bergen;60.3144987;5.3578223
Minde Skole;Bergen;60.3544355;5.3363718
Mjølkeråen Skole;Bergen;60.4855031;5.2639743
Møhlenpris Oppveksttun Avd Skole;Bergen;60.3832329;5.3233647
Møllebakken Skole;Bergen;60.3782656;5.3387771
Nattland Skole;Bergen;60.337658;5.373347
Nordnes Skole;Bergen;60.3973682;5.3078664
Ny Krohnborg Skole;Bergen;60.375081;5.3339891
Nygårdslien Skole;Bergen;60.3826545;5.2737298
Olsvik Skole;Bergen;60.381833;5.214957
Paradis Skole;Bergen;60.3385215;5.3425887
Rolland Skole;Bergen;60.4633965;5.3328132
Rudolf Steinerskolen I Bergen Skolen;Bergen;60.34367890000001;5.3430755
Salhus Skule;Bergen;60.504263;5.264062
Seljedalen Skole;Bergen;60.360717;5.285271
Skjold Skole;Bergen;60.304901;5.3320315
Skranevatnet Skole;Bergen;60.3006897;5.2848965
Slettebakken Skole;Bergen;60.3556354;5.3573668
Smørås Skole;Bergen;60.3018477;5.3508612
St Paul Skole;Bergen;60.3887239;5.3235193
Stiftelsen Davinci Montessoriskole;Bergen;60.3499461;5.350781599999999
Stiftelsen Montessoriskolen I Bergen;Bergen;60.3448126;5.2833966
Stiftelsen Steinerskolen På Skjold;Bergen;60.31014080000001;5.3289912
Sædalen Skole;Bergen;60.349924;5.3927159
Sælen Oppveksttun Avd Skole;Bergen;60.34681430000001;5.2825367
Søreide Skole;Bergen;60.3179533;5.2705804
Søråshøgda Skole;Bergen;60.302549;5.3181206
Tertnes Skole;Bergen;60.456794;5.285436
Ulsetskogen Skole;Bergen;60.4608836;5.3149789
Ulsmåg Skole;Bergen;60.3140022;5.3754942
Vadmyra Skole;Bergen;60.3602362;5.2274927
Varden Skole;Bergen;60.34038;5.27217
Ytre Arna Skule;Bergen;60.461949;5.432017
Ådnamarka Skule;Bergen;60.411297;5.475851
Baldersheim Barneskule;Bjørnafjorden;60.145016;5.744062
Borgafjellet Barneskule;Bjørnafjorden;60.2002837;5.4876303
Eikelandsosen Barneskule;Bjørnafjorden;60.2471968;5.7402748
Fusa Barneskule;Bjørnafjorden;60.1994504;5.6192743
Kuventræ Barneskule;Bjørnafjorden;60.195707;5.4497968
Lunde Barneskule;Bjørnafjorden;60.1618353;5.4406922
Lysekloster Barneskule;Bjørnafjorden;60.2114775;5.3889218
Nore Neset Barneskule;Bjørnafjorden;60.1782639;5.4120137
Os Barneskule;Bjørnafjorden;60.1886257;5.4682052
Strandvik Vekst As;Bjørnafjorden;60.157526;5.661754
Strøno Barneskule;Bjørnafjorden;60.1737013;5.3483671
Søfteland Barneskule;Bjørnafjorden;60.2368442;5.451555
Søre Øyane Barneskule;Bjørnafjorden;60.147109;5.3748524
Vinnes Friskule;Bjørnafjorden;60.1530802;5.5862535
Ådlandsfjorden Barneskule;Bjørnafjorden;60.282435;5.656443
Davik Oppvekst Avd Skule;Bremanger;61.88783340000001;5.5383995
Hauge Oppvekst Avd Skule;Bremanger;61.84093859999999;4.9601277
Kalvåg Oppvekst Frøyen Skule;Bremanger;61.76753739999999;4.8753766
Svelgen Oppvekst Avd Skule;Bremanger;61.76624760000001;5.286304400000001
Ålfoten Oppvekstsenter Avd Skule;Bremanger;61.8280164;5.6635249
Gilje Skule;Bømlo;59.771603;5.192172
Hillestveit Skule;Bømlo;59.6006264;5.2097133
Meling Skule;Bømlo;59.791666;5.141062
Moster Skule;Bømlo;59.711201;5.347442
Rubbestadneset Skule;Bømlo;59.814243;5.258269
Svortland Skule;Bømlo;59.791656;5.18961
Våge Skule;Fjaler;61.28278;5.03584
Lægreid Skule;Eidfjord;60.463623;7.072878
Enge Skule;Etne;59.66689;5.941024
Skånevik Skule;Etne;59.731606;5.932692
Fedje Skule;Fedje;60.7779467;4.7210729
Rimbareid Barne- Og Ungdomsskule;Fitjar;59.9147336;5.3198938
Selevik Skule;Fitjar;59.82246;5.324054
Dingemoen Skule;Fjaler;61.3538784;5.3995634
Flekke Skule;Fjaler;61.3192004;5.3579724
Breim Skule;Gloppen;61.7323662;6.5015141
Hyen Skule;Gloppen;61.7371746;5.9169731
Nordstranda Skule;Gloppen;61.789093;6.192082
Sandane Skule;Gloppen;61.7721043;6.219903
Brekke Skule;Gulen;61.014168;5.45339
Byrknes Skule;Gulen;60.901405;4.836937
Dalsøyra Skule;Gulen;60.931588;5.146214
Eivindvik Skule;Gulen;60.983854;5.089383
Hyllestad Skule;Hyllestad;61.1699431;5.2947721
Bjordal Skule;Høyanger;61.0676725;5.7998978
Høyanger Skule;Høyanger;61.2217299;6.0750512
Kyrkjebø Skule;Høyanger;61.164427;5.937743
Lavik Skule;Høyanger;61.104911;5.515048
Brandsøy Skule;Kinn;61.602035;5.132577
Eikefjord Barne- Og Ungdomsskule;Kinn;61.589865;5.463462
Florø Barneskole;Kinn;61.5987234;5.0390786
Krokane Skule;Kinn;61.59745;5.064747
Raudeberg Skule;Kinn;61.985904;5.134484
Skavøypoll Skule;Kinn;61.918211;5.154666
Skram Skule;Kinn;61.9185742;5.1732436
Torvmyrane Skule;Kinn;61.599652;5.077835
Foreninga Norheimsund Friskule;Kvam;60.3466143;6.1857316
Norheimsund Skule;Kvam;60.3706869;6.1425758
Strandebarm Skule;Kvam;60.2559095;6.0141959
Øystese Skule;Kvam;60.388214;6.1999013
Ålvik Skule;Kvam;60.4332697;6.4363953
Bringedalsbygda Skule;Kvinnherad;59.922505;5.795911
Halsnøy Skule;Kvinnherad;59.7969319;5.6786159
Hatlestrand Barne- Og Ungdomsskule;Kvinnherad;60.058287;5.918047
Malmanger Skule;Kvinnherad;59.9834606;6.0122537
Omvikdalen Skule;Kvinnherad;59.9413996;5.9866264
Sunde Skule;Sunnfjord;61.4287287;5.9333679
Undarheim Skule;Kvinnherad;59.8536582;5.7468896
Uskedalen Skule;Kvinnherad;59.9338239;5.8613172
Valen Skule;Kvinnherad;59.828972;5.7868151
Ølve Montessoriskule Sa;Kvinnherad;60.01262909999999;5.814530599999999
Gaupne Skule;Luster;61.4032598;7.2910534
Hafslo Barne- Og Ungdomsskule;Luster;61.3137678;7.2018761
Indre Hafslo Oppvekstsenter Skule;Luster;61.36319359999999;7.2673639
Jostedal Oppvekstsenter Skule;Luster;61.603777;7.291709
Luster Oppvekstsenter Skule;Luster;61.44474829999999;7.460290799999999
Skjolden Oppvekstsenter Skule;Luster;61.4911264;7.6027819
Solvorn Oppvekstsenter Skule;Luster;61.3013699;7.237411
Veitastrond Oppvekstsenter Skule;Luster;61.4837534;7.030597999999999
Borgund Skule;Lærdal;61.0814645;7.8532066
Lærdalsøyri Skule;Lærdal;61.1015215;7.4939525
Matre Skule;Masfjorden;60.873552;5.584373
Nordbygda Skule;Masfjorden;60.830695;5.28392
Sandnes Skule;Masfjorden;60.792171;5.296686
Mo Skule;Modalen;60.8174504;5.8095532
Fotlandsvåg Skule;Osterøy;60.588326;5.5244
Haus Skule;Osterøy;60.455354;5.489353
Hjellvik Montessoriskule;Osterøy;60.551212;5.408236
Hosanger Montessoriskule Sti;Osterøy;60.57018539999999;5.4854851
Lonevåg Skule;Osterøy;60.5214924;5.5100352
Valestrand Skule;Osterøy;60.5058989;5.4366498
Samnanger Barneskule;Samnanger;60.395182;5.767057
Fjærland Oppvekstsenter Avd Skule;Sogndal;61.39809580000001;6.7388017
Kaupanger Skule;Sogndal;61.188162;7.224538
Leikanger Barneskule;Sogndal;61.1921915;6.8540395
Norane Skule;Sogndal;61.180946;7.015672
Sagatun Skule Avd Skule;Sogndal;61.2057102;6.525644
Trudvang Skule;Sogndal;61.2325362;7.0996655
Solund Skule;Solund;61.0752123;4.8400659
Bryggja Skule As;Stad;61.94245840000001;5.4515549
Flatraket Skule;Stad;61.9748517;5.2245734
Haugen Skule;Stad;61.9247606;5.883831
Hjelle Skule;Stad;61.918745;6.079254
Kjølsdalen Montessoriskule Sa;Stad;61.91747089999999;5.6257209
Nordfjordeid Skule;Stad;61.911568;5.9935528
Selje Skule;Stad;62.042713;5.350402
Stadlandet Skule;Stad;62.111885;5.332945
Stårheim Skule;Stad;61.9192375;5.7628774
Hystad Skule;Stord;59.7974322;5.5132854
Langeland Skule;Stord;59.768022;5.47407
Leirvik Skule;Stord;59.7784094;5.4940417
Rommetveit Skule;Stord;59.8164556;5.5230189
Sagvåg Skule;Stord;59.7808635;5.3799135
Stord Kristne Skule As;Stord;59.7787658;5.484934700000001
Tjødnalio Skule;Stord;59.770477;5.412
Loen Skule;Stryn;61.8677952;6.8463498
Nordsida Skule;Stryn;61.854046;6.524772
Olden Skule;Stryn;61.8338423;6.8084517
Oppstryn Skule;Stryn;61.9158155;7.1103851
Tonning Skule;Stryn;61.9053045;6.7176431
Vikane Skule;Stryn;61.850811;6.617213
Bygstad Skule;Sunnfjord;61.37994;5.671383
Flatene Skule;Sunnfjord;61.4487503;5.8375177
Førde Barneskule;Sunnfjord;61.454744;5.8627033
Holsen Skule Og Barnehage Avd Skule;Sunnfjord;61.41834299999999;6.157249999999999
Naustdal Skule;Sunnfjord;61.512436;5.7151693
Sande Skule;Sunnfjord;61.325499;5.798629
Skei Skule;Sunnfjord;61.578304;6.48906
Slåtten Skule;Sunnfjord;61.463345;5.894072
Vassenden Skule;Sunnfjord;61.4904407;6.1190922
Viksdalen Skule;Sunnfjord;61.353341;6.117325
Auklandshamn Skule;Sveio;59.63804;5.386294
Førde Skule;Sveio;59.609879;5.472384
Sveio Skule;Sveio;59.543927;5.3583
Valestrand Oppvekstsenter Avd Skule;Sveio;59.70268929999999;5.485767099999999
Vikse Skule;Sveio;59.499258;5.300948
Onarheim Skule;Tysnes;59.949114;5.629531
Tysnes Skule;Tysnes;60.040914;5.537552
Hauso Barne- Og Ungdomsskule;Ullensvang;60.374927;6.641993
Jondal Skule;Ullensvang;60.2788164;6.2542504
Kinsarvik Skule;Ullensvang;60.3735825;6.7196131
Odda Barneskole;Ullensvang;60.0685862;6.5426192
Opedal Skule;Ullensvang;60.3292768;6.6581552
Røldal Skule;Ullensvang;59.832098;6.813295
Skare Barneskule;Ullensvang;59.930689;6.5967858
Tyssedal Barneskole;Ullensvang;60.117812;6.559375
Vikebygd Skule;Ullensvang;60.2595989;6.5729656
Brakanes Barne- Og Ungdomsskule;Ulvik;60.5681252;6.9108709
Dale Skule;Vaksdal;60.5913709;5.8192078
Eksingedalen Skule;Vaksdal;60.789463;6.114091
Stamnes Skule;Vaksdal;60.6648226;5.7723037
Stanghelle Skule;Vaksdal;60.553416;5.7467792
Vaksdal Skule;Vaksdal;60.475627;5.740248
Feios Skule;Vik;61.149316;6.765864
Flatbygdi Skule;Vik;61.08131;6.579037
Fresvik Enspire Skule As;Vik;61.0662079;6.931176199999999
Bjørgum Skule;Voss;60.6164692;6.537184
Bulken Skule;Voss;60.628014;6.316238
Evanger Skule;Voss;60.647468;6.116103
Gjernes Skule;Voss;60.6150851;6.4202989
Granvin Barne- Og Ungdomsskule;Voss;60.52749;6.722395
Gullfjordungen Skule;Voss;60.6277044;6.3941663
Palmafossen Skule;Voss;60.6364215;6.4696808
Skulestad Skule;Voss;60.65867;6.436026
Vangen Skule;Voss;60.6281626;6.4236835
Vossestrand Barne- Og Ungdomsskule;Voss;60.781125;6.4860317
Bjorøy Skule;Øygarden;60.3169205;5.1718169
Brattholmen Skule;Øygarden;60.3513814;5.1568134
Danielsen Barne- Og Ungdomsskule Sotra;Øygarden;60.352706;5.134551
Foldnes Skule;Øygarden;60.3671935;5.1174401
Hjelteryggen Skule;Øygarden;60.3837297;5.1533484
Knappskog Skule;Øygarden;60.3766142;5.0526845
Kolltveit Skule;Øygarden;60.3516948;5.095373
Landro Skule;Øygarden;60.4178956;4.970759
Rong Skule;Øygarden;60.5112044;4.9018164
Skogsvåg Skule;Øygarden;60.2603335;5.0923951
Spildepollen Skule;Øygarden;60.239266;5.039068
Stranda Skule;Øygarden;60.197457;5.101234
Tjeldstø Skule;Øygarden;60.592793;4.843034
Toftøy Skule;Øygarden;60.4805345;4.9460411
Ulveset Skule;Øygarden;60.3278162;5.0366888
Ågotnes Skule;Øygarden;60.4069853;4.9954321
Farnes Skule;Årdal;61.3095059;7.801275
Tangen Skule;Årdal;61.2431605;7.7127405
Aremark Skole;Aremark;59.22587;11.6987897
Ambjørnrød Skole;Fredrikstad;59.2469351;10.9208601
Begby Barne- Og Ungdomsskole;Fredrikstad;59.2158526;11.0101875
Childrens International School Fredrikstad As;Fredrikstad;59.2072675;10.9646607
Cicignon Skole;Fredrikstad;59.2074881;10.952143
Gudeberg Barne- Og Ungdomsskole;Fredrikstad;59.2051783;10.9620669
Hurrød Skole;Fredrikstad;59.2258557;10.9014422
Kjølberg Skole;Fredrikstad;59.22822;11.0009633
Manstad Skole;Fredrikstad;59.2683318;10.769481
Nylende Skole;Fredrikstad;59.303415;10.9749878
Nøkleby Skole;Fredrikstad;59.23149;10.968183
Rekustad Skole;Fredrikstad;59.2661442;10.9921675
Rød Skole Kråkerøy;Fredrikstad;59.1949709;10.9098701
Rød Skole Onsøy;Fredrikstad;59.2073649;10.8845998
Rødsmyra Skole;Fredrikstad;59.1993756;10.9272542
Råkollen Skole Avd Råkollen;Fredrikstad;59.2144901;10.9734817
Sagabakken Skole;Fredrikstad;59.2182304;10.9843249
Slevik Skole;Fredrikstad;59.200212;10.83359
Steinerskolen I Fredrikstad;Fredrikstad;59.2664481;10.9976719
Torp Skole;Fredrikstad;59.2452873;11.0239894
Torsnes Skole;Fredrikstad;59.18611;11.049612
Trara Skole;Fredrikstad;59.2191714;10.9391109
Trosvik Skole;Fredrikstad;59.2250992;10.9261056
Årum Skole;Fredrikstad;59.261623;11.091202
Gimle Skole;Halden;59.1379043;11.4093539
Halden Montessoriskole As;Halden;59.1181095;11.396638
Hjortsberg Skole;Halden;59.1409368;11.383616
Kongeveien Skole;Halden;59.113484;11.408196
Låby Skole;Halden;59.130458;11.3652475
Tistedal Skole;Halden;59.1319696;11.4542189
Hvaler Barne- Og Ungdomsskole;Hvaler;59.0706735;10.9431632
Askimbyen Skole;Indre Østfold;59.5846527;11.156015
Båstad Skole;Indre Østfold;59.6910025;11.295451
Grøtvedt Skole;Indre Østfold;59.5891182;11.1790057
Havnås Oppvekstsenter Avd Skole;Indre Østfold;59.6173002;11.4110344
Hærland Skole;Indre Østfold;59.5502413;11.4239798
Kirkefjerdingen Skole;Indre Østfold;59.5239462;11.2660029
Knapstad Barne- Og Ungdomsskole;Indre Østfold;59.624726;11.02448
Korsgård Skole;Indre Østfold;59.5887433;11.1973437
Moen Skole;Indre Østfold;59.5689005;11.1657022
Mysen Skole;Indre Østfold;59.5557022;11.3376172
Ringvoll Skole;Indre Østfold;59.5562462;10.8447214
Rom Skole;Indre Østfold;59.5900472;11.1295431
Skjønhaug Skole;Indre Østfold;59.63789;11.323199
Spydeberg Skole;Indre Østfold;59.59611;11.068364
Stiftelsen Steinerskolen I Indre Østfold;Indre Østfold;59.58636889999999;11.1242289
Tenor Skole;Indre Østfold;59.5781615;11.2587335
Tomter Skole;Indre Østfold;59.658264;11.00346
Trømborg Skole;Indre Østfold;59.507023;11.363131
Marker Kommune - Marker Skole;Marker;59.47818359999999;11.6577836
Buen Barne- Og Ungdomsskole;Moss;59.41864;10.68474
Bytårnet Skole;Moss;59.4324636;10.6683428
Children'S International School Moss As;Moss;59.43999299999999;10.669487
Ekholt Skole;Moss;59.4107683;10.6793996
Halmstad Skole;Moss;59.3804625;10.7454294
Krapfoss Skole;Moss;59.4332052;10.6819278
Larkollen Skole;Moss;59.3327879;10.6721817
Melløs Skole;Moss;59.422018;10.6680665
Nøkkeland Skole;Moss;59.4690671;10.6927398
Ramberg Skole;Moss;59.4419108;10.6286131
Refsnes Skole;Moss;59.4398796;10.6185434
Reier Skole;Moss;59.4296667;10.6296697
Steinerskolen I Moss Grunnskole/Adm;Moss;59.4340914;10.6583833
Torderød Skole Adventistkirkens Grunnskole;Moss;59.4348131;10.6391264
Vang Skole Og Ressurssenter;Moss;59.3828254;10.6896823
Verket Skole;Moss;59.4443577;10.678576
Øreåsen Skole;Moss;59.419936;10.6898839
Åvangen Skole;Moss;59.4588928;10.6967499
Bergenhus Skole;Rakkestad;59.420057;11.347595
Kirkeng Skole;Rakkestad;59.357136;11.420453
Råde Kommune Karlshus Skole;Råde;59.34763299999999;10.868676
Råde Kommune Spetalen Skole;Råde;59.2975447;10.7680439
Alvimhaugen Barneskole;Sarpsborg;59.271519;11.08821
Borgen Barneskole;Sarpsborg;59.2642693;11.1685206
Childrens International School Sarpsborg As;Sarpsborg;59.29207650000001;11.0952356
Grålum Barneskole;Sarpsborg;59.290898;11.057991
Hafslund Barneskole;Sarpsborg;59.2716883;11.1432606
Hafslundsøy Barneskole;Sarpsborg;59.2854185;11.1465887
Hannestad Barneskole;Sarpsborg;59.2761989;11.0587012
Hornnes Barneskole;Sarpsborg;59.2087837;11.1928765
Jelsnes Barneskole;Sarpsborg;59.375211;11.164599
Kurland Barneskole;Sarpsborg;59.2944599;11.1104782
Lande Barneskole;Sarpsborg;59.2903517;11.1042852
Olavsborg Kristne Skole;Sarpsborg;59.2915487;11.095209
Sandbakken Barne- Og Ungdomsskole;Sarpsborg;59.248473;11.180163
Sandesundsveien Barneskole;Sarpsborg;59.2775815;11.103788
Tindlund Barneskole;Sarpsborg;59.2691331;11.0470779
Varteig Barne- Og Ungdomsskole;Sarpsborg;59.34941;11.18011
Kirkelund Skole;Skiptvet;59.4711204;11.1718721
Kirkebygden Skole;Våler (Østfold);59.49008;10.85623
Svinndal Skole;Våler (Østfold);59.423518;11.01519
Våk Skole;Våler (Østfold);59.461311;10.799346
Valstrand Skole;Birkenes;58.322797;8.239794
Evje Ungdomsskule;Evje Og Hornnes;58.590371;7.81989
Farsund Ungdomsskole;Farsund;58.0919802;6.7947441
Lista Ungdomsskole;Farsund;58.0904614;6.6882549
Flekkefjord Ungdomsskole;Flekkefjord;58.303438;6.667718
Froland Ungdomsskole;Froland;58.51306;8.629707
Grimstad Ungdomsskole;Grimstad;58.345837;8.59004
Holviga Ungdomsskole;Grimstad;58.324773;8.565885
Fiskå Skole;Kristiansand;58.1260587;7.9543887
Grim Skole;Kristiansand;58.1482333;7.9705422
Haumyrheia Skole;Kristiansand;58.1579323;8.0666273
Havlimyra Skole;Kristiansand;58.1912295;8.0334397
Holte Skole;Kristiansand;58.128196;8.095298
Lindebøskauen Skole;Kristiansand;58.0882304;7.9996158
Møvig Skole;Kristiansand;58.104393;7.972108
Oddemarka Skole;Kristiansand;58.1570083;8.01482
Songdalen Skole;Kristiansand;58.155498;7.8305056
Tangvall Skole;Kristiansand;58.0966803;7.8102969
Tinntjønn Skole;Kristiansand;58.1017511;7.766182
Vigvoll Skole;Kristiansand;58.1757395;8.0897579
Kvinesdal Ungdomsskole;Kvinesdal;58.312611;6.962985
Blomdalen Ungdomsskole;Lindesnes;58.0255815;7.443085
Vassmyra Ungdomsskole;Lindesnes;58.027665;7.49768
Vigeland Ungdomsskole;Lindesnes;58.080665;7.314025
Øyslebø Ungdomsskole;Lindesnes;58.1716737;7.5545706
Byremo Ungdomsskole;Lyngdal;58.424501;7.405312
Lyngdal Ungdomsskole;Lyngdal;58.1358091;7.0665804
Risør Ungdomsskole;Risør;58.714562;9.21912
Lyngmyr Skole;Tvedestrand;58.628779;8.93527
Valle Skule;Valle;62.47841;6.661038
Vennesla Ungdomsskole;Vennesla;58.2757885;7.9771211
Borgen Ungdomsskole;Asker;59.8265928;10.4194823
Holmen Skole Grunnskole/Videregående Skole;Asker;59.865819;10.486931
Hovedgården Ungdomsskole;Asker;59.7848343;10.4366861
Landøya Ungdomsskole;Asker;59.860315;10.4979949
Risenga Ungdomsskole;Asker;59.8255953;10.4410402
Slemmestad Ungdomsskole;Asker;59.7777992;10.4786267
Solvang Ungdomsskole;Asker;59.8399357;10.4244707
Spikkestad Ungdomsskole;Asker;59.740071;10.350366
Sætre Ungdomsskole;Asker;59.6703561;10.5368909
Tofte Ungdomsskole;Asker;59.5495895;10.5640329
