EnhetNavn;Kommune;lat;lng
Arendal International School (Ais);Arendal;58.432075;8.74147
Asdal skole;Arendal;58.435024;8.694807
Birkenlund skole;Arendal;58.470299;8.792936
Eydehavn skole;Arendal;58.5095539;8.8692752
Flosta skole;Arendal;58.552887;8.972653
Grimstad International School AS;Arendal;58.337531;8.5807805
Hisøy skole 1-10 Skoler;Arendal;58.4449844;8.7652587
Moltemyr skole;Arendal;58.475933;8.764561
Myra skole;Arendal;58.484573;8.732923
Nedenes skole;Arendal;58.4131671;8.7094974
Nesheim skole;Levanger - Levangke;58.517195;8.781854
Roligheden skole Barne-/Ungdomstrinnet;Arendal;58.455447;8.803997
Rykene oppvekstsenter avd skole;Arendal;58.41159200000001;8.633167199999999
Sandnes skole;Hadsel;68.584484;14.909814
St. Franciskus skole;Arendal;58.4577927;8.7659565
Stiftelsen steinerskolen i Arendal;Arendal;58.4761148;8.7559636
Stinta skole barne- og Ungdomstrinnet;Arendal;58.462557;8.7579788
Strømmen oppvekstsenter avd skole;Arendal;58.45051489999999;8.742611499999999
Stuenes skole barne- og Ungdomstrinn;Arendal;58.492494;8.847901
Birkeland skole;Birkenes;58.3208908;8.2415812
Engesland skole;Birkenes;58.52942;8.11796
Herefoss skole;Birkenes;58.519119;8.353069
Bygland skule;Bygland;58.831722;7.798301
Byglandsfjord skule;Bygland;58.666517;7.812333
Bykle barne- og ungdomsskule;Bykle;59.3567449;7.3586337
Fjellgardane skule;Bykle;59.5639832;7.3558341
Evje barneskule;Evje og Hornnes;58.590928;7.82098
Hornnes barneskule;Evje og Hornnes;58.567555;7.763544
Borhaug skole;Farsund;58.0998155;6.585855
Farsund barneskole;Farsund;58.0928756;6.7954073
Vanse skole;Farsund;58.1045097;6.6946259
Gyland skole;Flekkefjord;58.37619;6.834008
Hidra skole;Flekkefjord;58.232993;6.554486
Sira skole;Flekkefjord;58.415733;6.660056
Sunde skole;Stavanger;58.960909;5.623613
Froland barneskole;Froland;58.512397;8.632294
Mykland skole;Froland;58.632134;8.294034
Abel skole;Gjerstad;58.839058;9.094655
Eide skole;Grimstad;58.2691361;8.5048766
Fevik skole;Grimstad;58.381716;8.679816
Fjære barneskole;Grimstad;58.3698544;8.622854
Frivoll skole;Grimstad;58.3466;8.577291
Hesnes skole montessoriskolen i Grimstad;Grimstad;58.343523;8.618342
Holviga barneskole;Grimstad;58.324293;8.567059
Jappa skole;Grimstad;58.348336;8.588836
Landvik skole;Grimstad;58.3490726;8.5351871
Eiken skule;Hægebostad;58.487218;7.19692
Kollemo skule;Hægebostad;58.383446;7.215788
Iveland skole;Iveland;58.456334;7.919944
Brattbakken skole;Kristiansand;58.1786705;8.0918534
Fagerholt skole;Kristiansand;58.1793204;8.0340622
Finsland skole;Kristiansand;58.2736055;7.585993
Flekkerøy skole;Kristiansand;58.078851;7.995235
Hellemyr skole;Kristiansand;58.1474858;7.9357089
Hellemyr skole Kompetanse;Kristiansand;58.1473505;7.9367722
Justvik skole;Kristiansand;58.2039818;8.0300722
Karl Johans Minne skole;Kristiansand;58.1482673;7.9558781
Karuss skole;Kristiansand;58.1292669;7.9499914
Kringsjå skole;Oslo;59.9625895;10.7299529
Kristiansand Internasjonale skole;Kristiansand;58.156184;8.018051
Krossen skole;Kristiansand;58.1534313;7.9547858
Krossen skole - Kompetanse;Kristiansand;58.1539482;7.9535881
Langenes skole;Kristiansand;58.078205;7.855842
Lovisenlund skole;Kristiansand;58.1564012;8.0096264
Lunde skole;Kristiansand;58.0967352;7.7711289
Mosby oppvekssenter skole;Kristiansand;58.2203603;7.9239569
Nygård skole;Kristiansand;58.089446;7.816021
Oasen skole Birkelid AS;Kristiansand;58.1253102;7.844828299999999
Oasen skole Strømme AS grunnskole;Kristiansand;58.1548321;8.0760794
Oasen skole Vågsbygd AS;Kristiansand;58.11919280000001;7.9475772
Odderhei skole;Kristiansand;58.1341882;8.076199
Presteheia skole;Kristiansand;58.16641;8.0110319
Rosseland skole;Kristiansand;58.134302;7.858253
Samfundets skole Sentrum;Kristiansand;58.149636;7.993728
Sjøstrand skole;Kristiansand;58.1019688;7.9759944
Slettheia skole;Kristiansand;58.1331082;7.9614618
Solholmen skole;Kristiansand;58.1479291;7.9696061
Stiftelsen steinerskolen i Kristiansand;Kristiansand;58.1591762;8.0152391
Strømme skole;Kristiansand;58.1529083;8.0814148
Tordenskjoldsgate skole;Kristiansand;58.1501825;7.9925454
Torridal skole;Kristiansand;58.2044254;7.927384
Tunballen skole;Kristiansand;58.169123;7.858572
Vardåsen skole;Asker;59.8194701;10.3792916
Ve skole;Kristiansand;58.207817;8.110378
Voiebyen skole;Kristiansand;58.1004299;7.94905
Vågsbygd skole;Kristiansand;58.1240155;7.9564345
Wilds Minne skole;Kristiansand;58.1494345;8.0239556
Austerdalen skole;Kvinesdal;58.356228;7.033009
Feda skole;Kvinesdal;58.270544;6.817146
Kvinlog skule;Kvinesdal;58.5208294;6.9324785
Liknes skole;Kvinesdal;58.3132;6.965267
Vesterdalen skole;Kvinesdal;58.384629;6.957211
Justøy skole - montessoriskolen i Lillesand Sti;Lillesand;58.2097157;8.3642904
Lillesand kommune - Borkedalen skole;Lillesand;58.2442548;8.3628812
Lillesand kommune - Brentemoen skole;Lillesand;58.2512604;8.3773869
Lillesand kommune - Høvåg skole;Lillesand;58.1593707;8.217202499999999
Lillesand kommune - Tingsaker skole;Lillesand;58.2599774;8.3992983
Bjelland skole;Lindesnes;58.383364;7.525785
Frøysland skole;Lindesnes;58.037979;7.453255
Furulunden skole;Lindesnes;58.024961;7.446878
Holum skole;Lindesnes;58.096895;7.522335
Ime skole;Lindesnes;58.033417;7.492194
Laudal skole;Lindesnes;58.2475881;7.4982189
Nyplass skole;Lindesnes;58.081044;7.312257
Oasen skole Mandal AS;Lindesnes;58.0334803;7.454668700000001
Spangereid skole;Lindesnes;58.0472581;7.1354322
Vigmostad skole;Lindesnes;58.201928;7.337459
Øyslebø skole;Lindesnes;58.1711322;7.5587268
Berge barneskole;Lyngdal;58.1364648;7.068251
Byremo barneskule;Lyngdal;58.4231356;7.4042642
Konsmo skole;Lyngdal;58.2997439;7.3611687
Kvås skole;Lyngdal;58.246447;7.185249
Stiftelsen Lyngdal Kristne grunnskole;Lyngdal;58.129238;7.065723999999999
Å barneskole;Lyngdal;58.1591023;7.0961533
Årnes skole;Nes;60.129706;11.476634
Hope oppvekstsenter Avdeling skole;Risør;58.6895508;9.1462124
Risør barneskole;Risør;58.716532;9.219084
Søndeled skole;Risør;58.762854;9.081439
Sinnes skule;Sirdal;58.913905;6.884116
Tonstad skule;Sirdal;58.671944;6.721219
Tvedestrand barneskole;Tvedestrand;58.6293317;8.9374461
Valle skule;Ålesund;62.47841;6.661038
Vegårshei skule;Vegårshei;58.75259;8.861058
Eikeland oppvekstsenter Avdeling skole;Vennesla;58.3392091;7.8096552
Kvarstein skole;Vennesla;58.237717;7.939567
Moseidmoen skole;Vennesla;58.2602514;7.9581254
Oasen skole Vennesla AS;Vennesla;58.2777255;7.970207
Skarpengland skole;Vennesla;58.2946496;7.8526035
Vennesla skole;Vennesla;58.2759824;7.9724086
Åmli skule;Åmli;58.772319;8.49638
Åseral barne- og ungdomsskule;Åseral;58.61885;7.420922
Arnestad skole;Asker;59.802259;10.489535
Billingstad skole;Asker;59.8748103;10.4733436
Blakstad skole;Asker;59.8126073;10.4559585
Bondi skole;Asker;59.8241209;10.439695
Brusetkollen skole og ressurssenter;Asker;59.8522769;10.459565
Drengsrud skole;Asker;59.8291591;10.4030218
Folkestad skole;Asker;59.551606;10.465046
Frydenlund skole;Narvik;68.4412587;17.4152958
Hagaløkka skole;Asker;59.8304179;10.422298
Heggedal skole;Asker;59.791514;10.4449062
Hofstad skole;Asker;59.8478507;10.4717594
Hvalstad skole;Asker;59.8604039;10.4654071
Hyggen skole;Asker;59.716743;10.3727492
Jansløkka skole;Asker;59.8489188;10.4435331
Mellom-Nes skole;Asker;59.8663559;10.4965892
Midtbygda skole;Oppdal;62.616535;9.567065
Nesøya skole;Asker;59.8692011;10.518609
Nærsnes skole;Asker;59.7550694;10.5049964
Rønningen skole;Asker;59.8182215;10.4287453
Slemmestad barneskole;Asker;59.7793429;10.4913742
Solberg skole;Drammen;59.763357;10.077614
Spikkestad skole;Asker;59.7494921;10.3360997
Steinerskolen i Asker skole;Asker;59.8613471;10.4950208
Steinerskolen i Hurum Sti;Asker;59.6330556;10.4958333
Stiftelsen Asker International School;Asker;59.8297074;10.4171605
Stiftelsen Vollen montessoriskole;Asker;59.807371;10.4854282
Sydskogen skole;Asker;59.7596789;10.4525153
Sætre skole;Notodden;59.570211;9.273259
Tofte skole;Asker;59.5416449;10.554122
Torvbråten skole;Asker;59.7615417;10.4796738
Vardåsen skole;Asker;59.8194701;10.3792916
Vettre skole;Asker;59.8256635;10.4692543
Aurskog-Høland kommune - Aursmoen skole;Aurskog-Høland;59.92424249999999;11.4502345
Aurskog-Høland kommune - Bjørkelangen skole;Aurskog-Høland;59.8747487;11.559191
Aurskog-Høland kommune - Bråte skole;Aurskog-Høland;59.7211759;11.4531086
Aurskog-Høland kommune - Haneborg skole;Aurskog-Høland;59.9275779;11.5432195
Aurskog-Høland kommune - Løken skole;Aurskog-Høland;59.7969962;11.4654578
Aurskog-Høland kommune - Rømskog skole;Aurskog-Høland;59.7492056;11.8105123
Aurskog-Høland kommune - Setskog oppvekstsenter - skole;Aurskog-Høland;59.83092509999999;11.7207282
Anna Krefting skole;Bærum;59.9488103;10.5133311
Bekkestua barneskole;Bærum;59.9239072;10.5897697
Blommenholm skole;Bærum;59.8985044;10.5484334
Bryn og Hammerbakken skole Bryn skole;Bærum;59.9205629;10.4950095
Eikeli skole;Bærum;59.9375584;10.6044264
Eiksmarka skole;Bærum;59.9480159;10.623141
Emma Hjorth skole;Bærum;59.8964789;10.4873517
Evje skole;Bærum;59.8987292;10.5148549
Grav skole;Bærum;59.9284162;10.6084974
Gullhaug skole;Bærum;59.9450763;10.4914306
Haslum skole;Bærum;59.925008;10.570385
Hosle skole;Bærum;59.9348123;10.584765
Høvik skole;Lier;59.760162;10.2396001
Høvik Verk skole;Bærum;59.893818;10.570734
Jar skole;Bærum;59.920452;10.625571
Jong skole;Bærum;59.8873598;10.5091761
Levre skole;Bærum;59.9068397;10.5088718
Lommedalen skole;Bærum;59.9607871;10.4737578
Lysaker skole;Bærum;59.9096682;10.6173232
Løkeberg skole;Bærum;59.9096897;10.5483153
Oksenøya skole;Bærum;59.8984944;10.6108613
Oslo International School;Bærum;59.9196503;10.5832691
Rykkinn skole;Bærum;59.9299674;10.474445
Skui skole;Bærum;59.9271543;10.4472109
Snarøya skole;Bærum;59.888472;10.6230547
Stabekk skole;Bærum;59.9154946;10.5932701
Steinerskolen i Bærum Grunnskoleundervisning;Bærum;59.930249;10.60661
Stiftelsen Bærum montessoriskole;Bærum;59.907659;10.5788424
Storøya skole;Bærum;59.893952;10.609953
Tanum skole;Bærum;59.885377;10.477058
Bønsmoen skole;Eidsvoll;60.283946;11.17933
Dal skole;Frogn;59.7448728;10.6974616
Eidsvoll Verk skole;Eidsvoll;60.293558;11.158345
Feiring skole;Eidsvoll;60.4924065;11.1542598
Langset skole;Eidsvoll;60.4035025;11.2399196
Råholt skole;Eidsvoll;60.2734831;11.1891728
Steinerskolen på Eidsvoll;Eidsvoll;60.286582;11.240897
Vilberg skole;Østre Toten;60.6486598;10.8299005
Ås skole;Eidsvoll;60.329318;11.2151041
Kirkebygden barne- og ungdomsskole;Enebakk;59.7663725;11.1490756
Stranden skole;Enebakk;59.8229826;11.1663221
Ytre Enebakk skole;Enebakk;59.7208951;11.056512
Dal skole;Frogn;59.7448728;10.6974616
Drøbak Montessori barneskole AS;Frogn;59.6630543;10.634973
Drøbak skole;Frogn;59.6672255;10.6347553
Dyrløkkeåsen skole;Frogn;59.6674657;10.6556839
Heer skole;Frogn;59.6835312;10.6628232
Sogsti skole;Frogn;59.6545812;10.6465293
Gjerdrum barneskole;Gjerdrum;60.0709621;11.0380711
Veståsen skole;Gjerdrum;60.0833663;10.9983622
Hurdal skole og kultursenter avd skole;Hurdal;60.43333430000001;11.0688343
Hurdal steinerskole;Hurdal;60.4085572;11.0510112
Bergerbakken skole;Jevnaker;60.2384093;10.3549972
Toso skole;Jevnaker;60.2378267;10.4247958
Asak skole;Lillestrøm;59.9930604;11.108926
Blaker skole;Lillestrøm;59.9904606;11.3721399
Brånås skole;Lillestrøm;59.9980929;11.0228659
Dalen skole;Lillestrøm;59.8762306;11.218963
Frogner skole;Lillestrøm;60.0254365;11.103104
Frydenlund skole og ressurssenter;Lillestrøm;59.9507395;11.0139051
Garderåsen skole;Lillestrøm;59.9422593;11.1535736
Gjellerås skole;Lillestrøm;59.9662106;11.0001965
Hovinhøgda skole;Lillestrøm;59.9321862;11.1419808
Kjeller skole;Lillestrøm;59.9742877;11.0399084
Kjellervolla skole;Lillestrøm;59.9649947;11.0442783
Oks friskole Sti;Lillestrøm;59.9814731;11.0146295
Riddersand skole;Lillestrøm;59.917226;11.169982
Sagdalen skole;Lillestrøm;59.950985;11.011879
Skjetten skole;Lillestrøm;59.9599672;10.9966942
Sten-Tærud skole;Lillestrøm;59.9955063;11.0405668
Sørum skole;Lillestrøm;60.0107612;11.236591
Sørumsand skole;Lillestrøm;59.979004;11.2334026
Vesterskaun skole;Lillestrøm;60.0214556;11.1654336
Vigernes skole;Lillestrøm;59.9551457;11.0717551
Volla skole;Lillestrøm;59.9650925;11.0441717
Åsenhagen skole;Lillestrøm;60.0088209;11.033627
Grua skole;Lunner;60.2586759;10.6605932
Harestua skole;Lunner;60.2110977;10.7130379
Lunner barneskole;Lunner;60.2966283;10.5577044
Benterud skole;Ringerike;60.159879;10.249777
Finstad skole;Nordre Follo;59.7158004;10.8220352
Fjellhamar skole;Lørenskog;59.9385768;10.9781045
Kurland skole;Lørenskog;59.9331299;11.0182876
Luhr skole;Lørenskog;59.9434059;10.9554905
Lørenskog friskole;Lørenskog;59.931378;10.929107
Rasta skole;Lørenskog;59.920513;10.938593
Rudolf steinerskolen Lørenskog Sti;Lørenskog;59.9131554;10.9383158
Solheim skole;Lørenskog;59.9299351;10.9542929
Åsen skole;Ringsaker;61.026777;10.753892
Eltonåsen skole;Nannestad;60.13167;11.014821
Kringler-Slattum skole;Nannestad;60.1713182;10.9951456
Maura skole;Nannestad;60.257005;11.04067
Preståsen skole;Nannestad;60.222015;11.026929
Auli skole;Nes;60.035082;11.360623
Fenstad skole;Nes;60.2156359;11.4020068
Fjellfoten skole;Nes;60.093182;11.474796
Framtun skole;Nes;60.060872;11.409578
Hoppensprett Akademiet Brårud AS;Nes;60.2088577;11.3323299
Neskollen skole;Nes;60.125442;11.3394039
Romerike International School Sti;Nes;60.12736080000001;11.3380797
Skogbygda skole;Nes;60.2283522;11.5155903
Østgård skole;Nes;60.120193;11.530076
Årnes skole;Nes;60.129706;11.476634
Berger skole;Rendalen;61.89333;11.076386
Bjørnemyr skole;Nesodden;59.8286715;10.6412046
Fjellstrand skole;Nesodden;59.7964325;10.6228268
Jaer skole;Nesodden;59.7906901;10.6901685
Myklerud skole;Nesodden;59.7465612;10.6138539
Nesoddtangen skole;Nesodden;59.854107;10.665036
Rudolf steinerskolen stiftelsen avd Undervisning;Nesodden;59.80428189999999;10.6381967
Elvetangen skole;Nittedal;60.1123359;10.8483702
Holumskogen skole;Nittedal;59.98366;10.938499
Rotnes skole;Nittedal;60.055015;10.873204
Slattum skole;Nittedal;60.0095081;10.9162318
Sørli skole;Nittedal;60.0580758;10.8526188
Ulverud skole;Nittedal;59.9962577;10.9211237
Bøleråsen skole;Nordre Follo;59.763816;10.856641
Finstad skole;Nordre Follo;59.7158004;10.8220352
Follo barne- og ungdomsskole;Nordre Follo;59.7659528;10.8440732
Greverud skole;Nordre Follo;59.768128;10.811089
Hans Nielsen Hauges grunnskole Follo AS;Nordre Follo;59.73520579999999;10.9082107
Hebekk skole;Nordre Follo;59.7251426;10.832854
Kolbotn skole;Nordre Follo;59.8126987;10.803732
Kråkstad skole;Nordre Follo;59.6777853;10.8856734
Langhus skole;Nordre Follo;59.7475074;10.8388317
Siggerud skole;Nordre Follo;59.7905422;10.8894795
Ski skole;Nordre Follo;59.7204986;10.8445851
Sofiemyr skole Holbergsvei;Nordre Follo;59.797734;10.8143635
Tårnåsen skole;Nordre Follo;59.8133221;10.8218247
Vassbonn skole;Nordre Follo;59.8116387;10.7851018
Vevelstadåsen skole;Nordre Follo;59.756978;10.8485339
Østli skole;Nordre Follo;59.7822257;10.8061144
Blystadlia skole;Rælingen;59.93098;11.0407883
Fjerdingby skole og Ressursavdeling;Rælingen;59.9262051;11.0636737
Løvenstad skole;Rælingen;59.9363659;11.0268006
Nordby skole;Ås;59.724593;10.762042
Rud skole;Rælingen;59.945426;11.0425244
Smestad skole;Oslo;59.9327026;10.6826142
Algarheim skole;Ullensaker;60.1449695;11.249831
Bakke skole;Ullensaker;60.069306;11.1316971
Borgen skole;Ullensaker;60.098577;11.220049
Døli skole;Ullensaker;60.1377055;11.1678273
Gystadmarka skole;Ullensaker;60.152274;11.191579
Hovin skole;Indre Østfold;59.6234244;11.0799735
Jessheim skole og ressurssenter;Ullensaker;60.1473289;11.1738241
Mogreina skole;Ullensaker;60.2281526;11.1662085
Nordkisa skole;Ullensaker;60.190056;11.259017
Skogmo skole;Ullensaker;60.1376293;11.2011916
Åreppen skole;Ullensaker;60.08626;11.131884
Bjørlien skole;Vestby;59.5980723;10.7071265
Brevik skole;Vestby;59.5040925;10.6912817
Hølen skole;Vestby;59.5419825;10.7382482
Son skole;Vestby;59.519704;10.7005968
Vestby skole;Vestby;59.5968072;10.7569116
Brønnerud skole;Ås;59.6645457;10.7512528
Nordby skole;Ås;59.724593;10.762042
Rustad skole;Oslo;59.8714475;10.8391353
Sjøskogen skole;Ås;59.7416273;10.7718757
Solberg skole;Drammen;59.763357;10.077614
Steinerskolen i Ås;Ås;59.6865617;10.8116304
Åsgård skole;Ås;59.6637337;10.7866962
Akademiet realfagsskole Drammen AS;Drammen;59.74860529999999;10.1719843
Aronsløkka skole;Drammen;59.7624067;10.1289493
Bragernes skole;Drammen;59.7485795;10.2260466
Brandengen skole;Drammen;59.7292059;10.2227334
Danvik skole;Drammen;59.7351845;10.1929065
Fjell skole;Drammen;59.7197261;10.2238158
Gulskogen skole;Drammen;59.73999;10.17048
Hallermoen skole;Drammen;59.7283256;10.1467357
Konnerud skole;Drammen;59.7217704;10.133261
Krokstad skole;Drammen;59.758275;10.0004039
Mjøndalen skole;Drammen;59.7477459;10.0124481
Norlights montessoriskole Drammen AS;Drammen;59.7397994;10.1809964
Rosendal skole;Drammen;59.7501414;10.0259396
Rødskog skole;Drammen;59.7450104;10.1598414
Skoger skole;Drammen;59.6852526;10.2509535
Solberg skole;Drammen;59.763357;10.077614
Steinberg skole;Drammen;59.758595;9.9725525
Stenseth skole;Drammen;59.760384;10.035932
Tangen skole;Stange;60.6166324;11.2590873
Tømmerås skole;Drammen;59.605797;10.402626
Vestbygda skole;Drammen;59.6959739;10.1662574
Øren skole;Drammen;59.7524187;10.1693938
Åsen skole;Ringsaker;61.026777;10.753892
Åskollen skole;Drammen;59.7134237;10.2604475
Åssiden skole;Drammen;59.752116;10.144363
Flesberg skole;Flesberg;59.8385947;9.5721763
Flå skole;Melhus;63.196733;10.316501
Gol skule;Gol;60.7052273;8.9369401
Hemsedal skole;Hemsedal;60.862643;8.561334
Geilo barne- og ungdomsskole;Hol;60.53399;8.21917
Hallingskarvet skole;Hol;60.6154819;8.2980795
Røyse skole;Hole;60.0915234;10.2196871
Sundvollen oppvekstsenter Avdeling skole;Hole;60.05866199999999;10.312644
Tyrifjord barne- og ungdomsskole;Hole;60.068448;10.171658
Vik skole;Sømna;65.313092;12.1685992
Efteløt skole;Kongsberg;59.550077;9.811701
Gamlegrendåsen skole;Kongsberg;59.6507825;9.664883
Hvittingfoss barne- og ungdomsskole;Kongsberg;59.489087;10.00927
Kongsberg steinerskole AS;Kongsberg;59.6305663;9.7198321
Kongsgårdmoen skole;Kongsberg;59.6270015;9.6470317
Madsebakken skole;Kongsberg;59.668946;9.673686
Raumyr skole;Kongsberg;59.675182;9.654772
Skavanger skole;Kongsberg;59.6820409;9.6281613
Stiftelsen Kongsberg International School;Kongsberg;59.67596069999999;9.642636099999999
Wennersborg skole;Kongsberg;59.6532015;9.6398211
Krødsherad skole;Krødsherad;60.1241455;9.7871805
Egge skole;Lier;59.8142403;10.2137001
Gullaug skole;Lier;59.7510794;10.2827686
Hallingstad skole;Lier;59.810284;10.2696538
Hegg skole;Lier;59.7827027;10.243788
Heia skole;Lier;59.8210699;10.3290309
Hennummarka skole;Lier;59.8213502;10.2799383
Høvik skole;Lier;59.760162;10.2396001
Oddevall skole;Lier;59.862389;10.218061
Sylling skole;Lier;59.89162;10.292531
Buskerud skole;Modum;59.896305;9.889189
Enger skole;Modum;59.891921;9.927209
Stalsberg skole;Modum;59.922573;9.963959
Sysle skole;Modum;59.9917586;9.9157845
Vikersund skole;Modum;59.9734617;9.9926433
Nesbyen skole;Nesbyen;60.5680861;9.1027428
Rødberg skole;Nore og Uvdal;60.26882;8.944285
Uvdal skole;Nore og Uvdal;60.270674;8.744945
Benterud skole;Ringerike;60.159879;10.249777
Discovery International School AS;Ringerike;60.2054315;10.3682193
Hallingby skole;Ringerike;60.2687919;10.1792931
Helgerud skole;Ringerike;60.1849;10.1955
Nes skole;Ringerike;60.565726;9.986816
Ringerike Montessori AS;Ringerike;60.13550770000001;10.1666881
Ringerike steinerskole Sti;Ringerike;60.20940689999999;10.3760064
Sokna skole;Ringerike;60.2426759;9.9310896
Steinsfjorden montessoriskole SA;Ringerike;60.1290624;10.3519346
Tyristrand skole;Ringerike;60.085273;10.102012
Ullerål skole;Ringerike;60.18133;10.267012
Vang skole;Ringerike;60.1744603;10.3226608
Veien skole;Ringerike;60.1755077;10.2328555
Veggli skole;Rollag;60.041426;9.150187
Eggedal skole;Sigdal;60.2399523;9.3563832
Nerstad skole;Sigdal;60.0019706;9.7366144
Prestfoss skole;Sigdal;60.041829;9.631114
Darbu barneskole;Øvre Eiker;59.7000285;9.8000786
Hokksund barneskole;Øvre Eiker;59.766659;9.9261805
Ormåsen barneskole;Øvre Eiker;59.7545665;9.8223181
Røren barneskole;Øvre Eiker;59.7706532;9.8797307
Skotselv skole;Øvre Eiker;59.8493134;9.8799913
Vestfossen barneskole;Øvre Eiker;59.729771;9.868933
Nedre-Ål skule;Ål;60.628525;8.550031
Nordbygdene skule;Ål;60.70158;8.486949
Torpo skule;Ål;60.665291;8.721256
Alta Kristne grunnskole SA;Alta;69.9677541;23.3515328
Bossekop skole;Alta;69.9601438;23.2423801
Elvebakken skole;Alta;69.9710749;23.3647513
Gakori skole;Alta;69.9520893;23.2214782
Haldde montessoriskole SA;Alta;69.9313348;23.0178681
Kaiskuru skole;Alta;69.9560231;23.3732165
Komsa skole;Alta;69.973064;23.269944
Leirbotn skole;Alta;70.120693;23.394276
Rafsbotn skole;Alta;70.0187733;23.5296252
Saga skole;Alta;69.9626011;23.4273394
Talvik skole;Alta;70.0419009;22.9433702
Tverrelvdalen skole;Alta;69.932999;23.432776
Øvre Alta skole;Alta;69.9273941;23.2660226
Berlevåg skole;Berlevåg;70.8610772;29.0918586
Båtsfjord skole;Båtsfjord;70.63308;29.717738
Boftsa oppvekstsenter Avdeling skole;Deatnu - Tana;70.3788295;28.1762119
Deanu Sàmeskuvla;Deatnu - Tana;70.19649;28.1689365
Tanabru skole;Deatnu - Tana;70.197898;28.166543
Gamvik skole;Gamvik;71.063754;28.241559
Mehamn skole;Gamvik;71.03507;27.851265
Kautokeino skole;Guovdageaidnu - Kautokeino;69.013813;23.046197
Baksalen skole;Hammerfest - Hámmerfeasta;70.657753;23.7038682
Fjordtun skole;Hammerfest - Hámmerfeasta;70.634536;23.6849732
Forsøl skole;Hammerfest - Hámmerfeasta;70.7214996;23.7964221
Fuglenes skole;Hammerfest - Hámmerfeasta;70.674135;23.6652845
Kokelv oppvekstsenter;Hammerfest - Hámmerfeasta;70.6121636;24.6414087
Kvalsund skole;Hammerfest - Hámmerfeasta;70.4985035;23.9736593
Reindalen skole;Hammerfest - Hámmerfeasta;70.6915962;23.7007339
Breivikbotn skole;Hasvik;70.591564;22.302993
Hasvik skole;Hasvik;70.4889359;22.1502253
Sørvær oppvekstsenter Avdeling skole;Hasvik;70.63010369999999;21.9851267
Karasjok grunnskole;Kárášjohka - Karasjok;69.4693965;25.5146275
Kjøllefjord skole;Lebesby;70.9449785;27.3576028
Høgtun skole;Loppa;70.250454;22.352506
Havøysund skole;Måsøy;70.9988847;24.6573876
Honningsvåg skole;Nordkapp;70.97842;25.977887
Billefjord Sjøsamiske oppvekstsenter Avdeling skole;Porsanger - Porsángu - Porsanki;70.31648009999999;25.047947
Lakselv barneskole;Porsanger - Porsángu - Porsanki;70.0486892;24.9676467
Bugøynes oppvekstsenter avd skole;Sør-Varanger;69.9734941;29.6408802
Hesseng flerbrukssenter avd skole;Sør-Varanger;69.6910628;29.98805
Kirkenes skole;Sør-Varanger;69.723396;30.0582691
Pasvik skole;Sør-Varanger;69.454864;30.054626
Sandnes og Bjørnevatn skole;Sør-Varanger;69.6687274;29.972181
Unjargga Oahppogaldu Nesseby oppvekstsenter avd skole;Unjárga - Nesseby;70.17449599999999;28.5536708
Vadsø barne- og kulturskole avd skole;Vadsø;70.0750927;29.75437509999999
Vadsø kommune Vestre Jakobselv oppvekstsenter avd skole;Vadsø;70.11798089999999;29.3359618
Vardø kommune grunnskole;Vardø;70.3705875;31.1094377
Alvdal barneskole;Alvdal;62.1043282;10.6428324
Dovre barneskole;Dovre;62.0778772;9.1257012
Eidskog montessoriskole SA;Eidskog;59.92636299999999;11.993246
Magnor skole;Eidskog;59.9452511;12.1707863
Skotterud skole;Eidskog;59.9855247;12.1361543
Elverum kommune - Ydalir skole;Elverum;60.8920444;11.580184
Frydenlund skole;Narvik;68.4412587;17.4152958
Hanstad skole;Elverum;60.8620607;11.5699666
Hernes skole;Elverum;60.9262174;11.6371196
Lillemoen skole;Elverum;60.825084;11.627237
Søbakken skole;Elverum;60.8982018;11.5681366
Sørskogbygda skole;Elverum;60.9424328;11.7805875
Vestad skole;Elverum;60.8859957;11.5398856
Engerdal barne- og ungdomsskole;Engerdal;61.8190077;11.9207648
Etnedal skule;Etnedal;60.9260411;9.6335265
Folldal skole;Folldal;62.1320915;9.9845768
Fjerdum skole;Gausdal;61.233614;10.208153
Follebu skole;Gausdal;61.2213303;10.2793651
Forset skole;Gausdal;61.2012779;10.1470106
Biri barneskole;Gjøvik;60.9535075;10.6082369
Blomhaug skole;Gjøvik;60.7866202;10.6494705
Fredheim skole;Gran;60.3907873;10.4633082
Gjøvik skole;Gjøvik;60.7947283;10.6847402
Grande skole;Gjøvik;60.8107427;10.5851946
Kopperud skole;Gjøvik;60.769142;10.6759288
Lundstein skole;Gjøvik;60.8427806;10.6631632
Snertingdal skole;Gjøvik;60.8752516;10.4038092
Steinerskolen Gjøvik-Toten;Gjøvik;60.7882821;10.6996869
Vindingstad skole;Gjøvik;60.7739847;10.6983093
Bjoneroa skole;Gran;60.5162846;10.2958473
Brandbu barneskole;Gran;60.4225035;10.5131429
Fredheim skole;Gran;60.3907873;10.4633082
Jaren skole;Gran;60.3927191;10.5779236
Sanne skole;Gran;60.367119;10.5320166
Trintom skole;Gran;60.3597266;10.5866814
Grue barne- og ungdomsskole;Grue;60.450287;12.054574
Greveløkka skole;Hamar;60.8027511;11.0657521
Hamar Montessori skole Sti;Hamar;60.8207101;11.0477278
Ingeberg skole;Hamar;60.8279967;11.1303065
Lovisenberg skole;Hamar;60.7955029;11.1644969
Lunden skole;Hamar;60.8381517;11.1966283
Prestrud skole;Hamar;60.8078898;11.0353781
Ridabu skole;Hamar;60.802637;11.1361794
Rollsløkken skole;Hamar;60.8005328;11.0841394
Solvang skole;Haugesund;59.418499;5.286613
Storhamar skole;Hamar;60.8013624;11.0502486
Austmarka barne- og ungdomsskole;Kongsvinger;60.1007697;12.323332
Brandval skole;Kongsvinger;60.321062;12.006254
Finnskogen montessoriskole Ba;Kongsvinger;60.2983238;12.2842641
Kongsvinger montessoriskole SA;Kongsvinger;60.17325930000001;12.0184654
Langeland skole;Kongsvinger;60.1985647;11.9918973
Marikollen skole;Kongsvinger;60.1911318;11.9718448
Roverud skole;Kongsvinger;60.2581124;12.0630206
Vennersberg skole;Kongsvinger;60.1759191;12.0270268
Lesja skule;Lesja;62.1171537;8.8543079
Lesjaskog skule;Lesja;62.2312113;8.3802796
Engesvea barne- og ungdomsskole;Lillehammer;61.0948726;10.4834214
Hammartun skole;Lillehammer;61.1125741;10.4630517
Jørstadmoen skole;Lillehammer;61.1544956;10.3911893
Nordre Ål skole;Lillehammer;61.1326354;10.4644826
Røyslimoen skole;Lillehammer;61.0957844;10.5092306
Stiftelsen Lillehammer steinerskole;Lillehammer;61.0998604;10.4244938
Søre Ål barneskole;Lillehammer;61.0937316;10.4762316
Vingar skole;Lillehammer;61.1081794;10.4276023
Vingrom skole;Lillehammer;61.0480805;10.4322006
Loar skule;Lom;61.8388169;8.5605566
Hedemarken friskole;Løten;60.8010225;11.3037854
Jønsrud skole;Løten;60.8699094;11.3674116
Lund skole;Løten;60.8313485;11.3125381
Østvang skole;Løten;60.8229989;11.3532734
Ådalsbruk skole;Løten;60.7879169;11.3286193
Nord-Aurdal barneskole;Nord-Aurdal;60.9879904;9.2433618
Valdres montessoriskule SA;Nord-Aurdal;60.998427;9.101026000000001
Barhaug skole;Nord-Fron;61.5985663;9.7297053
Kvam skole;Steinkjer;64.138733;11.733867
Skåbu oppvekstsenter avd skole;Nord-Fron;61.5293674;9.4162353
Sødorp skole;Nord-Fron;61.5910945;9.76476
Mo barne- og ungdomsskole;Nord-Odal;60.423664;11.642413
Sand sentralskole;Nord-Odal;60.390831;11.534826
Nordre Land kommune 0-24 Torpa barne- og ungdomsskole;Nordre Land;60.9661071;10.1081095
Nordre Land kommune Dokka barne- og ungdomsskole;Nordre Land;60.83448789999999;10.0756769
Os skole;Rakkestad;59.440117;11.311685
Berger skole;Rendalen;61.89333;11.076386
Fagertun skole;Rendalen;61.720727;11.195858
Fåvang skole;Ringebu;61.4554209;10.1994043
Ringebu skole;Ringebu;61.5334295;10.143338
Venabygd montessoriskole;Ringebu;61.593842;10.0498864
Brøttum barne- og ungdomsskole;Ringsaker;61.0281513;10.5567884
Fagerlund skole;Ringsaker;60.8942643;10.9406497
Gaupen skole;Ringsaker;60.8720405;10.7800238
Hempa skole;Ringsaker;60.898477;10.9584208
Kirkekretsen skole;Ringsaker;60.920429;10.906621
Kirkenær skole;Ringsaker;60.8420306;11.021733
Kylstad skole;Ringsaker;60.8737667;11.04113
Lismarka skole;Ringsaker;61.0719002;10.6276989
Moelv skole;Ringsaker;60.9285917;10.6943234
Mørkved skole;Ringsaker;60.8702301;10.9592395
Nes barneskole;Ringsaker;60.801537;10.842971
Stavsberg skole;Ringsaker;60.8192418;11.0553896
Åsen skole;Ringsaker;61.026777;10.753892
Heidal skule;Sel;61.7510542;9.3222085
Otta skole;Sel;61.7737905;9.5417719
Skjåk barne- og ungdomsskule;Skjåk;61.8836922;8.2628386
Arstad skole;Stange;60.7699303;11.1139698
Breidablikk skole;Trondheim - Tråante;63.3488639;10.3612663
Hoberg skole;Stange;60.7718533;11.1347856
Solvin skole;Stange;60.7331954;11.26021
Stange skole;Østre Toten;60.6359564;10.9109152
Steinerskolen på Hedemarken avd grunnskolen Ottestad;Stange;60.7774681;11.1027464
Tangen skole;Stange;60.6166324;11.2590873
Vallset skole;Stange;60.6810849;11.3422031
Koppang skole;Stor-Elvdal;61.5672189;11.0631423
Fryal skole;Søndre Land;60.6830283;10.3548711
Odnes skole;Søndre Land;60.803307;10.169531
Bagn skule;Sør-Aurdal;60.8235072;9.548629
Hedalen barne- og ungdomsskole;Sør-Aurdal;60.6046541;9.7420634
Midtbygda og Harpefoss skule;Sør-Fron;61.5595031;9.9488546
Glommasvingen skole;Sør-Odal;60.257786;11.67013
Tolga skole;Tolga;62.4114022;10.9966047
Vingelen skole;Tolga;62.414454;10.866655
Innbygda skole;Trysil;61.314827;12.266887
Jordet skole;Larvik;59.0173881;10.0113318
Trysil montessoriskole SA;Trysil;61.1351552;12.4970169
Fåset skole og barnehage avd skole;Tynset;62.25926999999999;10.65815
Kvikne skole;Tynset;62.5610682;10.3238832
Tylldalen skole;Tynset;62.127633;10.799686
Tynset barneskole;Tynset;62.2725088;10.7776553
Vang barne- og ungdomsskule;Vang;61.130671;8.592836
Vestre Slidre skule;Vestre Slidre;61.0875496;8.9835312
Bøverbru skole;Vestre Toten;60.6648695;10.6813991
Korta skole;Vestre Toten;60.7203979;10.627863
Raufoss skole;Vestre Toten;60.7237757;10.599855
Reinsvoll skole;Vestre Toten;60.6776689;10.6257063
Thune skole;Vestre Toten;60.6162323;10.6219342
Vågåmo skule;Vågå;61.8719468;9.0972111
Våler barne- og ungdomsskole;Våler (Innlandet);60.6737368;11.8298135
Hoffsvangen skole;Østre Toten;60.6843061;10.8414213
Kapp skole;Østre Toten;60.7118404;10.8778946
Kolbu skole;Østre Toten;60.6411946;10.7254136
Nordli skole;Østre Toten;60.741779;10.761918
Stange skole;Østre Toten;60.6359564;10.9109152
Toten montessoriskole;Østre Toten;60.5976576;10.7344939
Totenviken skole;Østre Toten;60.6451066;11.0050186
Vilberg skole;Østre Toten;60.6486598;10.8299005
Aurvoll skole;Øyer;61.3142721;10.3070694
Solvang skole;Haugesund;59.418499;5.286613
Lidar skule;Øystre Slidre;61.2024225;8.9744619
Rogne skule;Øystre Slidre;61.0817499;9.1276716
Åmot Barne og ungdomsskole;Åmot;61.1402518;11.3679599
Åmot montessoriskole SA;Åmot;61.30172390000001;11.4620755
Solør montessoriskole;Åsnes;60.575068;12.071309
Åsnes barneskole;Åsnes;60.6111663;12.0181214
Gossen barne- og ungdomsskole avd skole;Aukra;62.806707;6.8826449
Julsundet skole;Aukra;62.7724432;6.9931739
Aure barne- og ungdomsskole;Aure;63.268008;8.5344466
Tustna barne- og ungdomsskole;Aure;63.158431;7.963703
Bodalen friskole;Averøy;63.0122249;7.5860358
Bruhagen barneskole;Averøy;63.0492035;7.6377694
Kårvåg barneskole;Averøy;63.0174751;7.4725179
Eidsdal skule;Fjord;62.2542451;7.1601384
Stordal skule;Fjord;62.382125;7.007992
Valldal skule;Fjord;62.301908;7.259656
Giske skule;Giske;62.5044883;6.0508172
Godøy skule;Giske;62.4725098;6.0226814
Valderøy barneskule;Giske;62.504644;6.130757
Vigra skule;Giske;62.572816;6.115895
Angvik skule;Gjemnes;62.897063;8.08902
Batnfjord skule;Gjemnes;62.8926676;7.677178
Torvikbukt skule SA;Gjemnes;62.9420035;7.8590615
Brattvåg barneskule;Haram;62.6007655;6.4412866
Eidet skule;Haram;62.546373;6.59721
Grytastranda montessoriskule;Haram;62.533667;6.354615
Haramsøy barne- og ungdomsskule;Haram;62.6441541;6.2605425
Hildre montessoriskule SA;Haram;62.6038155;6.3529263
Søvik barneskule;Haram;62.54656;6.285734
Bigset skule;Hareid;62.357025;5.967164
Brandal friskule;Hareid;62.401344;6.006172
Hareid skule;Hareid;62.370608;6.02457
Hjørungavåg skule;Hareid;62.346338;6.058862
Bergsøy skule;Herøy (Møre og Romsdal);62.3346064;5.647269
Einedalen skule;Herøy (Møre og Romsdal);62.3344917;5.6877307
Leikanger skule;Herøy (Møre og Romsdal);62.236633;5.790929
Moltu skule;Herøy (Møre og Romsdal);62.2949535;5.6355735
Møre barne- og ungdomsskule;Herøy (Møre og Romsdal);62.2784638;5.8073176
Nerlandsøy skule;Herøy (Møre og Romsdal);62.3409717;5.5855062
Stokksund barne- og ungdomsskule;Herøy (Møre og Romsdal);62.3030602;5.7301058
Bud skule;Hustadvika;62.90564000000001;6.9222
Eide barneskole;Hustadvika;62.917977;7.4455997
Haukås skole;Bergen;60.4906797;5.3846293
Hustad skole;Hustadvika;62.96058;7.115704
Jendem skole;Hustadvika;62.788154;7.0211707
Sylte skule;Hustadvika;62.829098;7.234932
Tornes skule;Hustadvika;62.843536;7.032445
Allanengen skole;Kristiansund;63.1147179;7.7286869
Bjerkelund skole;Kristiansund;63.086943;7.8820169
Dale barneskole;Kristiansund;63.123536;7.7898142
Folkeparken skole;Kristiansund;63.1222598;7.7505026
Frei skole;Kristiansund;63.0369843;7.7845924
Innlandet skole;Hadsel;68.557258;15.217526
Nordlandet barneskole;Kristiansund;63.1077588;7.7561735
Rensvik skole;Kristiansund;63.095868;7.813852
Bolsøya skole;Molde;62.7305792;7.3213494
Eidsvåg barne- og ungdomsskole;Molde;62.778045;8.074184
Eresfjord barne- og ungdomsskule;Molde;62.6617782;8.1148537
Kleive oppvekstsenter skole;Molde;62.7924124;7.6573138
Kvam skole;Steinkjer;64.138733;11.733867
Kviltorp skole;Molde;62.7437216;7.233375
Langmyra skole;Molde;62.7430637;7.1812964
Midsund skule;Molde;62.6815325;6.6703845
Molde friskole;Molde;62.7373422;7.1218724
Nordbyen skole;Molde;62.7551827;7.2228338
Sellanrå skole;Molde;62.7391966;7.1440242
Skjevik barne- og ungdomsskole;Molde;62.7868336;7.532336
Tøndergård skole og ressurssenter;Molde;62.743326;7.208114
Vistdal oppvekstsenter skole;Molde;62.72054099999999;7.9317386
Vågsetra barne- og ungdomsskole;Molde;62.7139085;7.4253729
Årølia skole;Molde;62.755497;7.291231
Innfjorden friskole SA;Rauma;62.4937236;7.5604139
Isfjorden skole;Rauma;62.577077;7.788514
Måndalen barne- og ungdomsskule;Rauma;62.5309903;7.4358184
Åfarnes barne- og ungdomsskole;Rauma;62.6588821;7.5034956
Åndalsnes barneskole;Rauma;62.563204;7.6874949
Gursken oppvekstsenter avd skule;Sande;62.2170511;5.6530625
Kvamsøy barne- og ungdomsskule;Sande;62.2006971;5.4140455
Larsnes skule;Sande;62.2088599;5.5739374
Smøla barneskole;Smøla;63.4600345;8.0093286
Geiranger skule;Stranda;62.099674;7.204527
Ringstad skule;Stranda;62.3074767;6.9358098
Sunnylven skule;Stranda;62.0847895;6.8706648
Langevåg skule;Sula;62.4391371;6.2133564
Rørstadmarka skule;Sula;62.4310488;6.265395
Solevåg skule;Sula;62.42722;6.31145
Gjøra oppvekstsenter avd skule;Sunndal;62.54787529999999;9.1127479
Løykja skole;Sunndal;62.652574;8.695233
Sande skole;Sandefjord;59.1376099;10.2279857
Tredal skole;Sunndal;62.6667258;8.5331818
Ålvundfjord skule;Sunndal;62.840684;8.518549
Bøfjorden og Bæverfjord oppvekstsenter avd Bæverfjord skule;Surnadal;63.02643;8.598329999999999
Mo oppvekstsenter avd skule;Surnadal;62.8767125;8.8802145
Surnadal barne- og ungdomsskule;Surnadal;62.98125;8.716892
Todalen og Stangvik oppvekstsenter;Surnadal;62.90216;8.597267
Aure barneskule;Sykkylven;62.3949467;6.5975492
Hundeidvik privatskule AS;Sykkylven;62.37643000000001;6.433375
Sørestranda skule;Sykkylven;62.383375;6.550883
Velledalen montessoriskule AS;Sykkylven;62.291885;6.646948
Meisingset oppvekstsenter avd skole;Tingvoll;62.8623369;8.2936804
Straumsnes barne- og ungdomsskole;Tingvoll;63.0357876;8.0393527
Tingvoll barne- og ungdomsskole;Tingvoll;62.9143256;8.1970924
Haddal skule;Ulstein;62.282304;5.875451
Hasund skule;Ulstein;62.3167008;5.8433604
Ulstein skule;Ulstein;62.356774;5.826688
Ulsteinvik barneskule;Ulstein;62.344812;5.850679
Fiskå skule;Vanylven;62.100773;5.566612
Myklebust skule;Vanylven;62.087657;5.740295
Åheim skule;Vanylven;62.036029;5.533243
Fiksdal friskule SA;Vestnes;62.51882999999999;7.12671
Helland barneskule;Vestnes;62.616256;7.091351
Tomrefjord skule;Vestnes;62.602138;6.929263
Tresfjord Enspire skule;Vestnes;62.5194794;7.1274426
Vike montessoriskule SA;Vestnes;62.61908279999999;7.148950399999999
Bratteberg skule;Volda;62.1497344;6.1124774
Dalsfjord skule;Volda;62.112963;5.938836
Folkestad skule;Midt-Telemark;59.436525;9.046218
Hornindal skule;Volda;61.976545;6.51911
Mork skule;Volda;62.168956;6.025039
Ulvestad barneskule AS;Volda;62.16601559999999;5.931412600000001
Øyra skule;Volda;62.1482881;6.0789836
Dalane skule;Ørsta;62.1593822;6.2305895
Hovden skule;Ørsta;62.185468;6.081063
Sæbø skule;Alver;60.619174;5.177406
Vartdal skule;Ørsta;62.298176;6.091452
Velle skule;Ørsta;62.1953488;6.1277953
Åmås friskule;Ørsta;62.1819452;6.1963739
Aspøy skole;Ålesund;62.4721255;6.1460544
Blindheim barneskole;Ålesund;62.43781;6.357705
Ellingsøy barne- og ungdomsskole;Ålesund;62.493174;6.19572
Emblem skule;Ålesund;62.437497;6.45461
Flisnes skole;Ålesund;62.4302661;6.4139077
Harøy skule;Ålesund;62.77158;6.457897
Hatlane skole;Ålesund;62.460655;6.271124
Hessa skole;Ålesund;62.458454;6.130492
Larsgården skole;Ålesund;62.4747654;6.239191
Lerstad barneskole;Ålesund;62.468511;6.307165
Møre barne- og ungdomsskule Skodje AS;Ålesund;62.484107;6.5067624
Skodje barne- og ungdomsskole avd barneskole;Ålesund;62.493139;6.1956365
Spjelkavik barneskole;Ålesund;62.460561;6.369287
Steinerskolen Ålesund;Ålesund;62.462039;6.266049
Stette friskule SA;Ålesund;62.523519;6.6306525
Stiftelsen Møre barne- og Ungdomsskule, Ålesund;Ålesund;62.4343013;6.3982646
Stokke og Vik skole;Ålesund;62.4954081;6.3265649
Valle skule;Ålesund;62.47841;6.661038
Volsdalen skole;Ålesund;62.4715411;6.1911927
Ørskog skule;Ålesund;62.4776723;6.8200132
Aalesund International School Sti;Ålesund;62.4655911;6.251226099999999
Åse skole;Ålesund;62.4637209;6.3304081
Bjarnetjønna skole;Alstahaug;66.016541;12.6157037
Søvik oppvekstsenter avd skole;Alstahaug;65.9216446;12.4483551
Andenes skole;Andøy;69.3160729;16.1287824
Bleik og Omegn Montessori Skolelag;Andøy;69.2729858;15.9650248
Risøyhamn skole;Andøy;68.968579;15.636839
Åse montessoriskole;Andøy;69.015781;15.807296
Beiarn barne- og ungdomsskole;Beiarn;66.916132;14.768424
Bindalseidet skole SA;Bindal;65.1268844;12.232336
Terråk skole;Bindal;65.086116;12.367723
Alberthaugen skole;Bodø;67.274059;14.42673
Alstad barneskole;Bodø;67.274192;14.481268
Aspåsen skole;Bodø;67.278264;14.3814433
Bodøsjøen skole;Bodø;67.2705576;14.4407984
Grønnåsen skole;Bodø;67.28083;14.46653
Hunstad barneskole;Bodø;67.28481;14.5395746
Kjerringøy oppvekstsenter avd skole;Bodø;67.51701;14.761825
Løpsmark skole;Bodø;67.3104829;14.4512237
Misvær oppvekstsenter avd skole;Bodø;67.11930439999999;15.0136669
Mørkvedbukta skole;Bodø;67.2795874;14.5648885
Mørkvedmarka skole;Bodø;67.2910513;14.5884512
Rønvik skole;Bodø;67.2963286;14.4186545
Saltstraumen skole;Bodø;67.235808;14.624071
Saltvern skole;Bodø;67.2891967;14.4311788
Skaug oppvekstsenter avd skole;Bodø;67.3872509;14.6363858
Skjerstad oppvekstsenter avd skole;Bodø;67.2330873;15.0165269
Skolen i Væran avd skole;Bodø;67.28291850000001;14.4150773
St Eysteins skole;Bodø;67.2757827;14.3659777
Tverlandet skole;Bodø;67.2972568;14.7279171
Østbyen skole;Bodø;67.2803239;14.4093963
Brønnøysund barneskole;Brønnøy;65.484279;12.222487
Hilstad Barne-Og ungdomsskole;Brønnøy;65.409529;12.54483
Eidet skole;Bø;68.73484;14.596156
Steine skole;Bø;68.6178734;14.4621788
Straume skole;Bø;68.688083;14.47901
Dønna barne- og ungdomsskole;Dønna;66.107939;12.490327
Løkta oppvekstsenter avd skole;Dønna;66.1492091;12.7284506
Nord-Dønna montessoriskole;Dønna;66.175489;12.544201
Evenes skole;Evenes - Evenášši;68.4830049;16.8883717
Sulitjelma skole;Fauske - Fuossko;67.134484;16.069571
Valnesfjord skole;Fauske - Fuossko;67.295143;15.177556
Vestmyra skole;Fauske - Fuossko;67.2643815;15.3770206
Flakstad barne- og ungdomsskole;Flakstad;68.0918472;13.2295923
Vikten skole;Flakstad;68.138748;13.312834
Inndyr skole avd skole;Gildeskål;67.03615529999999;14.0351118
Nygårdsjøen oppvekstsenter avd skole;Gildeskål;67.1017773;14.3057446
Sandhornøy skole;Gildeskål;67.1360206;14.0788274
Sørarnøy skole og barnehage avd skole;Gildeskål;67.1415195;13.9703605
Grane barne- og ungdomsskole;Grane;65.5344215;13.4001263
Drag skole;Hábmer - Hamarøy;68.040368;16.08117
Hamarøy montessoriskole;Hábmer - Hamarøy;68.0233458;15.3490422
Innhavet oppvekstsenter avd skole;Hábmer - Hamarøy;67.9633381;15.9319406
Oppeid skole;Hábmer - Hamarøy;68.083115;15.6237288
Innlandet skole;Hadsel;68.557258;15.217526
Melbu skole;Hadsel;68.503361;14.803934
Sandnes skole;Hadsel;68.584484;14.909814
Stokmarknes skole;Hadsel;68.5664881;14.9067493
Bleikvassli skole;Hemnes;65.916347;13.807486
Finneidfjord skole;Hemnes;66.185903;13.791702
Hemnes sentralskole;Hemnes;66.225854;13.607253
Korgen sentralskole;Hemnes;66.077643;13.808271
Herøy skole;Herøy (Nordland);65.97647;12.275334
Leirfjord barne- og ungdomsskole;Leirfjord;66.065339;12.938717
Konsvik oppvekstsenter avd skole;Lurøy;66.49904;13.09218
Kvarøy oppvekstsenter skole;Lurøy;66.4858551;12.9605545
Lovund skole;Lurøy;66.3665553;12.3577187
Onøy Lurøy oppvekstsenter avd skole;Lurøy;66.3983066;12.8683511
Sleneset oppvekstsenter skole;Lurøy;66.3635288;12.5942675
Lødingen skole;Lødingen;68.4091271;15.9757767
Vestbygd skole;Lødingen;68.347844;15.508176
Bolga oppvekstsenter avd skole;Meløy;66.8023606;13.205873
Enga skole;Meløy;66.7843739;13.5319175
Glomfjord skole;Meløy;66.8177981;13.9584396
Halsa skole;Meløy;66.742114;13.578547
Meløy oppvekstsenter avd skole;Meløy;66.8233041;13.4107259
Neverdal Enspire skole AS;Meløy;66.83453159999999;13.7758067
Spildra skole;Meløy;66.8633455;13.7266786
Sørvågen skole;Moskenes;67.889407;13.016659
Ankenes skole;Narvik;68.417451;17.383271
Ballangen skole;Narvik;68.3391075;16.825597
Beisfjord barneskole;Narvik;68.3773915;17.6030129
Bjerkvik skole;Narvik;68.552259;17.553636
Frydenlund skole;Narvik;68.4412587;17.4152958
Håkvik barneskole;Narvik;68.4039596;17.3097678
Kjøpsvik skole;Narvik;68.0994642;16.3864997
Narvik montessoriskole;Narvik;68.412662;17.439285
Skistua barneskole;Narvik;68.4350025;17.4415526
Skjomen skole;Narvik;68.246395;17.412057
Nesna skole avd Nesna;Nesna;66.198574;13.0228596
Båsmo barneskole;Rana - Raane;66.33534259999999;14.1090756
Dalsgrenda montessoriskole SA;Rana - Raane;66.2487556;13.9944585
Frikult grunnskole AS;Rana - Raane;66.3378225;14.0921857
Gruben barneskole;Rana - Raane;66.3196748;14.1957036
Grønfjelldal montessoriskole SA;Rana - Raane;66.3451535;14.7090605
Hauknes skole;Rana - Raane;66.2855001;14.0542641
Lyngheim skole;Rana - Raane;66.3198692;14.158431
Selfors barneskole;Rana - Raane;66.3260453;14.1810297
Skonseng skole;Rana - Raane;66.3578818;14.3448663
Storforshei barne- og ungdomsskole;Rana - Raane;66.403802;14.5278825
Utskarpen barne- og ungdomsskole;Rana - Raane;66.2929552;13.5636178
Ytteren skole;Rana - Raane;66.348233;14.1288177
Jektvik skole;Rødøy;66.6247423;13.2908386
Rødøy skole;Rødøy;66.6614026;13.0760148
Tjongsfjord skole;Rødøy;66.6980997;13.4192097
Øresvik skole;Rødøy;66.462173;13.225498
Røst barne- og ungdomsskole;Røst;67.517863;12.1154871
Rognan barneskole;Saltdal;67.0972862;15.3915577
Røkland skole grunnskolen;Saltdal;66.991539;15.328002
Holmstad skole;Sortland - Suortá;68.719936;15.153773
Jennestad montessoriskole;Sortland - Suortá;68.750572;15.302273
Lamarka skole;Sortland - Suortá;68.685256;15.3884082
Maurnes skole;Sortland - Suortá;68.7536666;15.4699294
Sigerfjord skole;Sortland - Suortá;68.646686;15.507666
Sortland barneskole;Sortland - Suortá;68.6965901;15.404514
Strand skole;Sortland - Suortá;68.697788;15.4518
Laskestad skole;Steigen;67.926681;15.020935
Steigenskolen Leines;Steigen;67.735888;14.81105
Steigenskolen Leinesfjord;Steigen;67.7770618;15.0163165
Steigenskolen Nordfold;Steigen;67.762179;15.223982
Vik skole;Sømna;65.313092;12.1685992
Røsvik oppvekstsenter skole;Sørfold - Fuolldá;67.4780018;15.4616644
Straumen skole;Sørfold - Fuolldá;67.344047;15.5931639
Husøy skole;Senja;69.5439037;17.6597625
Elsfjord montessoriskole SA;Vefsn;66.10317119999999;13.5437815
Granmoen skole;Vefsn;65.977084;13.215423
Kulstad skole;Vefsn;65.8664742;13.1998603
Mosjøen skole;Vefsn;65.836467;13.2043304
Olderskog skole;Vefsn;65.8232269;13.2199852
Vega barne- og ungdomsskole;Vega;65.675159;11.951084
Ballstad skole;Vestvågøy;68.084381;13.538986
Buksnes skole;Vestvågøy;68.1186061;13.5555038
Bøstad skole;Vestvågøy;68.239284;13.751981
Eltoft montessoriskole AS;Vestvågøy;68.2413835;13.689078
Fygle skole;Vestvågøy;68.145669;13.648834
Leknes skole;Vestvågøy;68.146443;13.619627
Opdøl montessoriskole Barne og ungdomsskole;Vestvågøy;68.186768;13.652838
Svarholt skole;Vestvågøy;68.137549;13.837688
Vevelstad sentralskole;Vevelstad;65.701312;12.440747
Værøy skole;Værøy;67.666406;12.6875706
Gimsøy skole;Vågan;68.32003;14.1996
Kabelvåg skole;Vågan;68.2167969;14.4662476
Laukvik skole;Vågan;68.39038;14.47026
Laupstad skole;Vågan;68.356392;14.741293
Strauman oppvekstsenter;Vågan;68.285827;14.347396
Svolvær skole;Vågan;68.238891;14.5596784
Ørsnes privatskole;Vågan;68.200513;14.395262
Alsvåg skole;Øksnes;68.905345;15.265138
Myre skole;Øksnes;68.9159106;15.0859659
Hattfjelldal oppvekstsenter avd skole;Aarborte - Hattfjelldal;65.5978384;14.000663
Abildsø skole;Oslo;59.8817366;10.8264847
Ammerud skole;Oslo;59.9650676;10.8744148
Bakås skole;Oslo;59.937376;10.9107874
Bekkelaget skole;Oslo;59.8825292;10.7849609
Berg skole;Halden;59.1246674;11.2981091
Bestum skole;Oslo;59.9237086;10.654051
Bjølsen skole;Oslo;59.9397534;10.7574078
Bjørndal skole;Oslo;59.8251415;10.8369881
Bjørnsletta skole;Oslo;59.928654;10.6425735
Bogstad skole;Oslo;59.9609792;10.6362407
Bolteløkka skole;Oslo;59.9276451;10.7349896
Bryn skole;Oslo;59.9144452;10.8230093
Brynseng skole;Oslo;59.9087469;10.8110299
Bygdøy skole;Oslo;59.9056108;10.6771206
Bøler skole;Oslo;59.8838953;10.8491743
Disen skole;Oslo;59.94825;10.7946777
Ekeberg skole;Holmestrand;59.4794293;10.3081745
Ellingsrudåsen skole;Oslo;59.9355404;10.9208346
Fernanda Nissen skole;Oslo;59.946972;10.769624
Furuset skole;Oslo;59.9392824;10.8913777
Gamlebyen skole;Oslo;59.9065777;10.7710763
Godlia skole;Oslo;59.9072803;10.8468375
Grefsen skole;Oslo;59.9546418;10.7740032
Grindbakken skole;Oslo;59.9680628;10.6470207
Grorud skole;Oslo;59.958356;10.88285
Grünerløkka skole;Oslo;59.9263962;10.7620568
Hallagerbakken skole;Oslo;59.8410808;10.7918545
Hans Nielsen Hauge grunnskole Oslo;Oslo;59.9621385;10.6912239
Hasle skole;Oslo;59.9219586;10.7897916
Haugen skole;Oslo;59.9477943;10.9052859
Haugenstua skole;Oslo;59.9538383;10.9202333
Haukåsen skole;Oslo;59.9233745;10.863445
Holmen skole;Oslo;59.953213;10.6753914
Huseby skole;Oslo;59.9457881;10.6535147
Høybråten skole;Oslo;59.9467247;10.9267087
Høyenhall skole;Oslo;59.8991779;10.81295
Ila skole;Trondheim - Tråante;63.4303821;10.3717905
Jeriko skole;Oslo;59.933752;10.8860758
Kampen skole;Stavanger;58.9720155;5.7159438
Karlsrud skole;Oslo;59.8778455;10.8101561
Kastellet skole;Oslo;59.8729364;10.7928275
Kjelsås skole;Oslo;59.9663328;10.7854903
Klemetsrud skole;Oslo;59.8349166;10.844471
Korsvoll skole;Oslo;59.9639436;10.7524614
Kringsjå skole;Oslo;59.9625895;10.7299529
Lakkegata skole;Oslo;59.9206475;10.7685595
Lambertseter skole;Oslo;59.8716392;10.8160687
Lilleaker skole;Oslo;59.923186;10.639382
Lilleborg skole;Oslo;59.9332473;10.7648266
Lindeberg skole;Oslo;59.9314545;10.8801598
Linderud skole;Oslo;59.9405182;10.8341715
Ljabruskolen - steinerskole for Elever Med Spesielle Behov Sti;Oslo;59.8499145;10.8043963
Ljan skole;Oslo;59.8469668;10.7865588
Lusetjern skole;Oslo;59.832486;10.7898316
Lutvann skole;Oslo;59.9248999;10.8701153
Lycee Francais Rene Cassin Doslo;Oslo;59.9171054;10.7175156
Lysejordet skole;Oslo;59.9371666;10.6384289
Lønnebakken skole;Oslo;59.9458532;10.8583003
Løren skole;Oslo;59.9313577;10.8029223
Majorstuen skole;Oslo;59.9290061;10.7132113
Manglerud skole;Oslo;59.8945599;10.823096
Maridalen skole;Oslo;60.004507;10.764003
Marienlyst skole;Oslo;59.934957;10.7229028
Mortensrud skole;Oslo;59.8473923;10.8251317
Munkerud skole;Oslo;59.8585679;10.8116362
Møllergata skole;Oslo;59.9185541;10.7501413
Nedre Bekkelaget skole;Oslo;59.8809596;10.7708405
Nordpolen skole;Oslo;59.9399108;10.7718683
Nordseter skole;Oslo;59.8670285;10.7958636
Nordstrand skole;Oslo;59.8606361;10.7941898
Nordtvet skole;Oslo;59.9515444;10.8723504
Nordvoll skole;Oslo;59.9239294;10.8647258
Norlights International School Oslo AS;Oslo;59.96161579999999;10.6921527
Nyskolen i Oslo grunnskole;Oslo;59.8634086;10.8389793
Nøklevann skole;Oslo;59.8768138;10.8490941
Oppsal skole;Oslo;59.8979404;10.8440061
Oslo kommune Språksenteret;Oslo;59.921994;10.770175
Oslo montessoriskole;Oslo;59.9639147;10.6927522
Prinsdal skole;Oslo;59.8364455;10.8140134
Refstad skole;Oslo;59.9377747;10.8055204
Rommen skole;Oslo;59.9667545;10.9141406
Rosenholm skole;Oslo;59.8289813;10.7854303
Rudolf steinerskolen i Oslo Sti;Oslo;59.9493186;10.6568737
Ruseløkka skole;Oslo;59.9132435;10.7254875
Rustad skole;Oslo;59.8714475;10.8391353
Ryenberget skole;Oslo;59.8988205;10.8022744
Rødtvet skole;Oslo;59.9542716;10.8585402
Sagene skole;Oslo;59.9312174;10.7598896
Seterbråten skole;Oslo;59.8310685;10.8294371
Sinsen skole;Oslo;59.9351483;10.7842314
Skjønnhaug skole;Oslo;59.9288367;10.8768111
Skøyen skole;Oslo;59.9292402;10.6911537
Slemdal skole;Oslo;59.9515517;10.6926458
Smestad skole;Oslo;59.9327026;10.6826142
St Sunniva skole avd Undervisning;Oslo;59.9187763;10.7452095
Steinerskolen på Nordstrand;Oslo;59.861879;10.79017
Stenbråten skole;Oslo;59.8525578;10.825315
Stiftelsen Den Tysk-Norske skolen i Oslo avd grunnskole og videregående;Oslo;59.9362861;10.7591832
Stiftelsen montessoriskolen Lyse;Oslo;59.9312396;10.6428908
Stovner skole;Oslo;59.9565379;10.9269123
Svendstuen skole;Oslo;59.9583808;10.688866
Sørkedalen skole;Oslo;60.0172038;10.6136941
Teglverket skole;Oslo;59.9236874;10.7949647
Tiurleiken skole;Oslo;59.9625899;10.8939848
Tonsenhagen skole;Oslo;59.9463367;10.8293339
Toppåsen skole;Oslo;59.8329456;10.8000707
Trasop skole;Oslo;59.9056594;10.8490279
Trosterud skole;Oslo;59.9228462;10.8578215
Tveita skole;Oslo;59.913698;10.838126
Tøyen skole;Oslo;59.9147045;10.7732058
Tåsen skole;Oslo;59.953693;10.7509642
Ullevål skole;Oslo;59.9422737;10.7326186
Ullevålsveien skole;Oslo;59.9292785;10.7363218
Uranienborg skole;Oslo;59.9200769;10.7189385
Vahl skole;Oslo;59.916692;10.766812
Veitvet skole;Oslo;59.9417435;10.8543925
Vestli skole;Oslo;59.9709441;10.9275395
Vetland skole grunnskole;Oslo;59.8972682;10.8437798
Vinderen skole;Oslo;59.9413983;10.7065774
Voksen skole;Oslo;59.9550546;10.6530682
Vollebekk skole;Oslo;59.9373465;10.827204
Vålerenga skole;Oslo;59.9070718;10.7899231
Østensjø skole;Oslo;59.8994586;10.8325636
Østmarka skole;Oslo;59.8902324;10.8528971
Årvoll skole;Oslo;59.9443074;10.8137623
Bjerkreim skule;Bjerkreim;58.583264;6.075741
Vikeså skule;Bjerkreim;58.63844;6.092869
Bokn skule;Bokn;59.2300805;5.4370425
Eigerøy skole;Eigersund;58.4547651;5.9643724
Gamleveien skole;Eigersund;58.457081;6.012316
Grøne Bråden skole;Eigersund;58.469273;6.006713
Helleland skole;Eigersund;58.532777;6.1332365
Hellvik skole;Eigersund;58.482663;5.887208
Husabø skole;Eigersund;58.447471;6.0010075
Rundevoll skole;Eigersund;58.431532;5.997514
Samfundets skole Egersund;Eigersund;58.445263;6.004577
Bærland skole;Gjesdal;58.775943;5.827567
Dirdal skole;Gjesdal;58.815705;6.218146
Kongstun Kristne friskole;Gjesdal;58.7781207;5.8357643
Oltedal skole;Gjesdal;58.826431;6.034382
Solås skole;Gjesdal;58.7736821;5.8638603
Ålgård skole;Gjesdal;58.7647275;5.8575365
Austrheim skole;Haugesund;59.43755;5.281118
Brakahaug skole;Haugesund;59.401599;5.318846
Gard skole;Haugesund;59.4280036;5.2667974
Hauge skole;Fredrikstad;59.2534335;10.9880905
Lillesund skole;Haugesund;59.4065685;5.2813618
Rossabø skole;Haugesund;59.4045433;5.2989473
Saltveit skole;Haugesund;59.468648;5.284942
Skåredalen skole;Haugesund;59.411453;5.324681
Solvang skole;Haugesund;59.418499;5.286613
Steinerskolen i Haugesund;Haugesund;59.418452;5.299388
Fister skule;Hjelmeland;59.1761221;6.0792545
Hjelmeland skule;Hjelmeland;59.2305331;6.1687922
Årdal skule;Hjelmeland;59.155904;6.192509
Bø skule;Midt-Telemark;59.4132312;9.0761357
Høyland skule;Hå;58.6861557;5.594011
Motland skule;Hå;58.661481;5.641808
Ogna skule;Hå;58.517759;5.809038
Varhaug skule;Hå;58.616247;5.6522916
Vigrestad storskule;Hå;58.570164;5.701873
Avaldsnes skole;Karmøy;59.353919;5.280175
Grindhaug skole;Karmøy;59.258139;5.202383
Haugesund International School Sti;Karmøy;59.38999219999999;5.2448461
Håvik skole;Karmøy;59.3184161;5.2873946
Kolnes skole;Karmøy;59.389297;5.372639
Kopervik skole;Karmøy;59.2879962;5.2945919
Kvalavåg montessoriskole AS;Karmøy;59.32526979999999;5.2071519
Mykje skole;Karmøy;59.3497782;5.3305008
Norheim skole;Karmøy;59.379101;5.321386
Sevland skole;Karmøy;59.272708;5.202154
Skudeneshavn skole;Karmøy;59.1519812;5.2637278
Stangaland skole;Karmøy;59.2733857;5.3149587
Sørhåland barneskole AS;Karmøy;59.15524529999999;5.2352909
Torvastad skole og kultursenter;Karmøy;59.38934;5.252592
Veavågen skole;Karmøy;59.291999;5.226075
Ådland skole;Karmøy;59.242583;5.202559
Åkra skole;Karmøy;59.259861;5.190468
Bore skule;Klepp;58.7883995;5.6034583
Engelsvoll skule;Klepp;58.77788;5.683958
Kleppe skule;Klepp;58.7790172;5.6371602
Kleppelunden skule;Klepp;58.7792072;5.6177442
Orre skule;Klepp;58.7183868;5.5721641
Orstad skule;Klepp;58.7871892;5.7131218
Tu skule;Klepp;58.745375;5.64161
Kvitsøy skole;Kvitsøy;59.0652309;5.4120202
Heskestad skule;Lund;58.530813;6.343043
Kiellands Minde skole;Lund;58.525893;6.497554
Nygård barneskole;Lund;58.450601;6.552559
Goa skole;Randaberg;58.9855597;5.6311153
Grødem skole;Randaberg;59.0103682;5.6536543
Harestad skole;Randaberg;59.0026265;5.6282129
Aspervika skole;Sandnes;58.8655585;5.7634909
Austrått skole;Sandnes;58.8420105;5.7404341
Bogafjell skole;Sandnes;58.821316;5.750795
Buggeland skole;Sandnes;58.814702;5.754574
Figgjo skole;Sandnes;58.7870286;5.8057876
Forsand skule;Sandnes;58.8974353;6.1327058
Forus friskole - Bus;Sandnes;58.8838575;5.7389581
Ganddal skole;Sandnes;58.823177;5.712217
Hana skole;Sandnes;58.855692;5.7754053
Hommersåk skole;Sandnes;58.9260621;5.8497511
Høle barne- og ungdomsskule;Sandnes;58.896918;6.017984
Iglemyr skole;Sandnes;58.8437774;5.7542124
Kleivane skole;Sandnes;58.8374924;5.774278
Kyrkjevollen skole;Sandnes;58.926991;5.839175
Lura skole;Sandnes;58.876059;5.735786
Malmheim skole;Sandnes;58.8332151;5.6600383
Maudland skole;Sandnes;58.9189919;5.8721256
Porsholen skole;Sandnes;58.880862;5.736366
Sandnes friskole AS;Sandnes;58.8238813;5.717138299999999
Sandnes International School AS;Sandnes;58.8828251;5.7415339
Sandved skole;Sandnes;58.8406983;5.7162822
Smeaheia skole;Sandnes;58.863323;5.722858
Stangeland skole;Sandnes;58.855087;5.715774
Sviland skule;Sandnes;58.827659;5.821036
Sørbø skole;Sandnes;58.825603;5.7306165
Trones skole;Sandnes;58.85603;5.733868
Vatneli skole;Sandnes;58.859148;5.772301
Austarheim skule;Sauda;59.658095;6.37953
Fløgstad skule;Sauda;59.6545354;6.3621309
Risvoll skule;Sauda;59.644621;6.311246
Sokndal skole;Sokndal;58.344054;6.296031
Dysjaland skule;Sola;58.840719;5.600638
Grannes skole;Sola;58.9180354;5.6824807
Haga skole;Sola;58.9372451;5.6047783
Røyneberg skole;Sola;58.903872;5.66594
Sande skole;Sandefjord;59.1376099;10.2279857
Skadberg skole;Sola;58.8832812;5.6679041
Storevarden skole;Sola;58.938784;5.574271
Auglend skole;Stavanger;58.94684;5.726762
Biss Gausel Sti;Stavanger;58.8972309;5.7335555
Biss Sentrum AS;Stavanger;58.9753288;5.7126109
Buøy skole;Stavanger;58.985833;5.734569
Byfjord skole;Stavanger;58.980259;5.7022731
Eiganes skole;Stavanger;58.9643697;5.707083
Finnøy skule;Stavanger;59.1744539;5.8715735
Gausel skole;Stavanger;58.8981543;5.7336638
Godeset skole;Stavanger;58.9011588;5.7138553
Hafrsfjord skole;Stavanger;58.9433298;5.6559184
Hundvåg skole;Stavanger;58.9965278;5.7338149
Johannes læringssenter Flerspråklige Barn;Stavanger;58.9673177;5.7551632
Jåtten skole;Stavanger;58.91544;5.725749
Kampen skole;Stavanger;58.9720155;5.7159438
Kristen friskole AS;Stavanger;58.9517458;5.7029362
Kvaleberg skole;Stavanger;58.944473;5.74471
Kvernevik skole;Stavanger;58.966746;5.60549
Lassa skole;Stavanger;58.957486;5.6944977
Lervig skole;Stavanger;58.9670448;5.757639
Madlamark skole;Stavanger;58.9498673;5.6779947
Madlavoll skole;Stavanger;58.9425631;5.6905122
Mosterøy skole;Stavanger;59.078809;5.669468
Norlights montessoriskole Stavanger AS;Stavanger;58.89365549999999;5.724426100000001
Nylund skole;Stavanger;58.9650385;5.7505283
Ombo oppvekstsenter Avdeling skule;Stavanger;58.9699756;5.7331073
Roaldsøy skole;Stavanger;58.9934958;5.7641061
Sjernarøy oppvekstsenter Avdeling skule;Stavanger;58.9699756;5.7331073
Skeie skole;Bergen;60.286274;5.3151172
Stavanger Kristne grunnskole;Stavanger;58.960849;5.691295
Steinerskolen Stavanger grunnskole;Stavanger;58.938509;5.734847
Storhaug skole;Stavanger;58.9661971;5.7415281
Sunde skole;Stavanger;58.960909;5.623613
Tasta skole;Stavanger;58.9836097;5.6790681
Teinå skole;Stavanger;58.9900355;5.6814457
Tjensvoll skole;Stavanger;58.9507804;5.704151
Vardenes skole;Stavanger;58.995698;5.683015
Vassøy skole;Stavanger;58.997825;5.786345
Vaulen skole;Stavanger;58.9310105;5.732326
Vikevåg skule;Stavanger;59.1033635;5.6984222
Våland skole;Stavanger;58.962252;5.7322908
Fjelltun skole;Strand;59.027431;6.0286995
Kfskolen - Jørpeland;Strand;59.027069;6.025578
Nordre Strand skole;Strand;59.1132;6.000744
Tau skole;Strand;59.063439;5.924126
Tryggheim Strand AS;Strand;59.0671006;5.9203225
Erfjord skule avd skule;Suldal;59.35498;6.21868
Jelsa oppvekstsenter avd skule;Suldal;59.3432404;6.0416758
Marvik skule avd skule;Suldal;59.41090939999999;6.0820712
Sand skule avd skule;Suldal;59.49165199999999;6.2542059
Vinjar skule avd skule;Suldal;59.4889404;6.4967378
Bryne skule;Time;58.7327749;5.6447463
Frøyland skule;Time;58.7735847;5.7272009
Hognestad skule;Time;58.7057022;5.6598874
Jærtun Lutherske friskule;Time;58.730016;5.664254
Lye skule;Time;58.7330332;5.7362567
Rosseland skule;Time;58.730911;5.6595614
Undheim skule;Time;58.6862285;5.7694407
Frakkagjerd barneskole;Tysvær;59.413493;5.40524
Førland skule;Tysvær;59.3947855;5.47831
Førre skole;Tysvær;59.428192;5.384226
Grinde skule;Tysvær;59.4288466;5.4606134
Nedstrand barne- og ungdomsskule;Tysvær;59.348863;5.798302
Straumen skule;Tysvær;59.431135;5.612954
Tysværvåg barne- og ungdomsskule;Tysvær;59.333951;5.485997
Utsira skole;Utsira;59.305707;4.8877612
Sandeid oppvekstsenter;Vindafjord;59.5450845;5.8575075
Skjold skule;Vindafjord;59.506205;5.596689
Vats skule;Vindafjord;59.491237;5.731826
Vik oppvekstsenter;Vindafjord;59.5756312;5.7705398
Vikedal skule;Vindafjord;59.496903;5.90859
Vågen oppvekstsenter;Vindafjord;59.5756312;5.7705398
Ølen skule;Vindafjord;59.604518;5.813243
Herre skole;Bamble;59.1027718;9.5657062
Langesund barneskole;Bamble;59.004785;9.733766
Rugtvedt skole;Bamble;59.040016;9.673893
Rønholt skole;Bamble;58.973909;9.572262
Stathelle barneskole;Bamble;59.035808;9.705462
Drangedal 10-Årige skole;Drangedal;59.09819;9.057917
Kroken skole;Drangedal;58.9706119;9.1610414
Tørdal skule;Drangedal;59.154031;8.813619
Gimle skule;Fyresdal;59.186477;8.086589
Hjartdal montessoriskule Sti;Hjartdal;59.60689379999999;8.7002758
Sauland skule;Hjartdal;59.620404;8.930894
Helle skole;Kragerø;58.9039461;9.3710134
Kragerø skole;Kragerø;58.8674668;9.4089338
Kragerøskjærgården montessoriskole;Kragerø;58.8580075;9.4779649
Sannidal skole;Kragerø;58.8934735;9.2939886
Kviteseid skule;Kviteseid;59.410889;8.4743149
Bø skule;Midt-Telemark;59.4132312;9.0761357
Folkestad skule;Midt-Telemark;59.436525;9.046218
Gvarv skole;Midt-Telemark;59.3880656;9.1897282
Sauar friskole;Midt-Telemark;59.41963;9.280634
Kyrkjebygda oppvekstsenter Avdeling skule;Nissedal;59.16674;8.50221
Tveit skule / Nissedal ungdomsskule;Nissedal;59.0241316;8.5204674
Helgen montessoriskole;Nome;59.255845;9.35933
Holla 10-Årige skole;Nome;59.278989;9.262437
Lunde 10-Årige skole;Nome;59.306893;9.101499
Gransherad skole;Notodden;59.6927;9.026822
Heddal barneskole;Notodden;59.5815333;9.1713419
Hjuksebø montessoriskole SA;Notodden;59.5087432;9.333044
Høgås skole;Notodden;59.5628443;9.3031421
Lisleherad montessoriskole SA;Notodden;59.5990702;9.2713818
Sætre skole;Notodden;59.570211;9.273259
Tinnesmoen skole;Notodden;59.5712786;9.2589382
Tveiten skole;Notodden;59.5483354;9.2827194
Bergsbygda montessoriskole;Porsgrunn;59.085119;9.720866
Borge skole;Fredrikstad;59.224678;11.045441
Brattås skole;Færder;59.1958048;10.38974
Brevik oppvekstsenter avd skole;Porsgrunn;59.05669140000001;9.691799099999999
Grønli skole;Porsgrunn;59.124869;9.655141
Heistadskolene avd Barn;Porsgrunn;59.1385567;9.6555147
Klevstrand skole;Porsgrunn;59.117907;9.65119
Langangen skole;Porsgrunn;59.082114;9.810021
Myrene skole;Porsgrunn;59.1362024;9.6706104
Sandøya montessoriskole;Porsgrunn;59.050366;9.729837
Stiftelsen International School Telemark;Porsgrunn;59.1055274;9.6814783
Stridsklev skole;Porsgrunn;59.111471;9.668901
Tveten skole;Porsgrunn;59.1168376;9.6975417
Vestsiden skole;Porsgrunn;59.146152;9.6380182
Flatdal oppvekstsenter skole 1-7;Seljord;59.567523;8.568436
Seljord barne- og ungdomsskule skole 1-10;Seljord;59.4830576;8.6229899
Midtbygda skole;Oppdal;62.616535;9.567065
Bratsbergkleiva skole;Skien;59.2056861;9.6165985
Buer skole;Skien;59.1691451;9.66189
Bølehøgda skole;Skien;59.1847816;9.6375989
Gjerpen barneskole;Skien;59.22536;9.607712
Kilebygda montessoriskole SA;Skien;59.10654;9.432559999999999
Kjørbekkhøgda skole;Skien;59.1782711;9.6157229
Klyve skole;Skien;59.152148;9.628152
Kollmyr skole;Skien;59.2132668;9.5546096
Lunde barneskole;Fredrikstad;59.1616573;10.9330632
Moflata skole;Skien;59.187281;9.596311
Oasen skole Grenland AS;Skien;59.2072798;9.5679599
Skauen Kristelige skole;Skien;59.1942334;9.6304571
Skien kommune Spesialpedagogisk Enhet;Skien;59.2074695;9.6105133
Skotfoss oppvekstsenter avd skole;Skien;59.2154017;9.5251184
Stigeråsen skole;Skien;59.219115;9.5620603
Venstøp skole;Skien;59.2474246;9.5714919
Åfoss skole;Skien;59.198042;9.543717
Atrå barne- og ungdomsskole;Tinn;59.987721;8.736121
Rjukan barneskole;Tinn;59.879653;8.615192
Tinn montessoriskole SA;Tinn;60.0477578;8.8189364
Høydalsmo skule;Tokke;59.4981467;8.1953745
Tokke skule;Tokke;59.446297;7.986363
Edland skule avd skule;Vinje;59.73834919999999;7.597175699999999
Rauland skule avd skule;Vinje;59.6945875;8.0646003
Øyfjell oppvekstsenter avd skule;Vinje;59.57484;8.18909
Åmot skule avd skule;Vinje;59.572815;7.9904943
Laksvatn oppvekstsenter avd skole;Balsfjord;69.377178;19.3667836
Malangen skole;Balsfjord;69.3317693;18.9010924
Nordkjosbotn skole;Balsfjord;69.216643;19.5628308
Storsteinnes skole;Balsfjord;69.237018;19.2134314
Setermoen skole;Bardu;68.8746987;18.3617323
Grov skole;Dielddanuorri - Tjeldsund;68.678161;17.120938
Ramsund skole;Dielddanuorri - Tjeldsund;68.493184;16.518401
Sandstrand Montessoriforening;Dielddanuorri - Tjeldsund;68.51828189999999;16.1748426
Skånland skole;Dielddanuorri - Tjeldsund;68.5802405;16.5829349
Elvetun skole;Dyrøy;69.0881395;17.6973243
Indre Kåfjord barne- og ungdomsskole;Gáivuotna - Kåfjord - Kaivuono;69.469272;20.920538
Manndalen skole;Gáivuotna - Kåfjord - Kaivuono;69.5262456;20.5266678
Olderdalen skole;Gáivuotna - Kåfjord - Kaivuono;69.6051785;20.5344448
Gratangsbotn skole;Gratangen - Rivtták;68.67260139999999;17.6944891
Montessoriskolen Morgan AS;Gratangen - Rivtták;68.69544789999999;17.4912636
Bergseng skole;Harstad - Hárstták;68.8074824;16.4981755
Harstad montessoriskole SA;Harstad - Hárstták;68.7870276;16.5859545
Harstad skole 1 - 7 skole;Harstad - Hárstták;68.8037872;16.5411417
Kanebogen skole;Harstad - Hárstták;68.7796957;16.5591787
Kila skole;Harstad - Hárstták;68.7337361;16.5632135
Medkila skole;Harstad - Hárstták;68.7593987;16.5414041
Seljestad barneskole;Harstad - Hárstták;68.7868455;16.5323163
Sørvik skole;Harstad - Hárstták;68.683497;16.527067
Øyriket oppvekstsenter avd skole;Harstad - Hárstták;69.0144072;16.4725171
Andørja montessoriskole;Ibestad;68.917851;17.165543
Ibestad skole;Ibestad;68.785074;17.157938
Hansnes barne- og ungdomsskole;Karlsøy;69.9613128;19.6068772
Vannvåg oppvekstsenter avd skole;Karlsøy;70.07301079999999;19.9786927
Borkenes skole;Kvæfjord;68.773333;16.179925
Kvænangen barne- og ungdomsskole;Kvænangen;69.9320029;22.041418
Lavangen skole;Loabák - Lavangen;68.746774;17.813489
Eidebakken skole;Lyngen;69.575713;20.196784
Lenangen skole;Lyngen;69.813049;20.0248504
Lyngsdalen oppvekstsenter Avdeling skole;Lyngen;69.72161899999999;20.0580352
Bjørkeng oppvekstsenter avd skole;Målselv;69.027974;19.2962776
Fagerlidal skole;Målselv;69.0745071;18.5378118
Karlstad oppvekstsenter avd skole;Målselv;69.2130875;18.461866
Mellembygd Kultur og oppvekstsenter avd skole;Målselv;69.0225524;18.8540388
Olsborg skole;Målselv;69.1493538;18.5969064
Sameskolen i Troms;Målselv;69.100786;18.58841
Øvergård montessoriskole;Målselv;69.021238;19.447656
Moan skole;Nordreisa - Ráisa - Raisi;69.7700995;21.0462411
Reisa montessoriskole;Nordreisa - Ráisa - Raisi;69.745537;21.111743
Rotsundelv skole;Nordreisa - Ráisa - Raisi;69.7863579;20.7049638
Straumfjordnes skole;Nordreisa - Ráisa - Raisi;69.868798;21.213897
Salangen kommune Salangen skole;Salangen;68.8740688;17.8434515
Berg montessoriskole;Senja;69.44718;17.290889
Botnhamn skole grunnskole 1.-10.;Senja;69.5008945;17.870606
Finnsnes barneskole;Senja;69.2350505;17.9997604
Gibostad barne- og ungdomsskole;Senja;69.3545246;18.0635699
Gryllefjord skole;Senja;69.3628222;17.045179
Husøy skole;Senja;69.5439037;17.6597625
Kårvik skole;Senja;69.391301;18.1823874
Medby skole;Senja;69.280904;17.051599
Rossfjord barne- og ungdomsskole;Senja;69.3654409;18.3273322
Senja montessoriskole;Senja;69.5048307;17.6274432
Senjahopen skole;Senja;69.496202;17.484438
Silsand barneskole;Senja;69.2458439;17.9490142
Stonglandet skole;Senja;69.08686;17.187995
Trollvik skole;Senja;69.287348;17.994386
Vikstranda skole;Senja;69.1720039;17.7505896
Skjervøy barneskole;Skjervøy;70.033796;20.9688528
Hatteng skole;Storfjord - Omasvuotna - Omasvuono;69.2731478;19.9624061
Skibotn skole;Storfjord - Omasvuotna - Omasvuono;69.386004;20.2776341
Longyearbyen skole grunnskole;Svalbard;78.2103398;15.6130256
Sørreisa barneskole;Sørreisa;69.1453638;18.1598371
Bjerkaker skole;Tromsø;69.6345244;18.9235526
Borgtun skole;Tromsø;69.6746471;18.9686452
Ekrehagen skole Adventistsamfunnets Grunnskoler;Tromsø;69.685891;18.9551534
Ersfjordbotn skole;Tromsø;69.693853;18.619731
Fagereng skole;Tromsø;69.6429364;18.904994
Gyllenborg skole;Tromsø;69.6521191;18.9508972
Hamna skole;Tromsø;69.7030757;18.9785783
Hillesøyskolen Brensholmen skole;Tromsø;69.598864;18.04764
Kaldfjord skole;Tromsø;69.6830951;18.7385364
Krokelvdalen skole;Tromsø;69.6813901;19.0735787
Lakselvbukt skole;Tromsø;69.433859;19.645343
Lunheim skole;Tromsø;69.6713787;19.041432
Mortensnes skole;Tromsø;69.683274;18.943269
Prestvannet skole;Tromsø;69.659956;18.9438359
Ramfjord skole;Tromsø;69.5591638;19.1855435
Reinen skole;Tromsø;69.6352266;18.967873
Sandnessund skole;Tromsø;69.6968572;18.8790302
Selnes skole;Tromsø;69.6876092;18.8470648
Skittenelv skole;Tromsø;69.775706;19.333237
Skjelnan skole;Tromsø;69.6905019;19.0809572
Slettaelva skole;Tromsø;69.7030731;18.8945209
Solneset skole;Tromsø;69.6959225;18.9558043
Stakkevollan skole;Tromsø;69.694031;18.9926901
Steinerskolen i Tromsø Sti;Tromsø;69.6409638;18.9347625
Stiftelsen Tromsø International School;Tromsø;69.681299;18.9655023
Storelva skole;Tromsø;69.684588;18.7966386
Straumsbukta skole;Tromsø;69.5765;18.628501
Tromsdalen skole;Tromsø;69.6472611;18.9943092
Trondjord skole;Tromsø;69.840387;18.865928
Vikran skole;Tromsø;69.542975;18.779669
Workinnmarka skole;Tromsø;69.6672365;18.9347369
Lauvsnes skole;Flatanger;64.497828;10.906349
Utvorda skole;Flatanger;64.584318;10.990721
Frosta skole;Frosta;63.5865716;10.7372608
Dyrøy oppvekstsenter avd skole;Frøya;63.7967879;8.6861788
Mausund oppvekstsenter avd skole;Frøya;63.7967879;8.6861788
Nabeita skole;Frøya;63.697582;8.791313
Nordskag oppvekstsenter avd skole;Frøya;63.7967879;8.6861788
Sistranda barneskole;Frøya;63.7303344;8.8288995
Grong barne- og ungdomsskole;Grong;64.4647501;12.3102764
Harran oppvekstsenter Avdeling skole;Grong;64.5654615;12.5012686
Halsa barne- og ungdomsskole;Heim;63.1199545;8.322643
Sodin skole;Heim;63.2919435;9.0813117
Svanem skole;Heim;63.394543;8.983378
Barman oppvekstsenter avd skole;Hitra;63.6219542;8.8507927
Fillan skole;Hitra;63.6027148;8.9750119
Knarrlagsund oppvekstsenter avd skole;Hitra;63.66509130000001;9.0780213
Strand oppvekstsenter avd skole;Hitra;63.535385;8.4012567
Holtålen kommune Haltdalen oppvekstsenter avd skole;Holtålen;62.92110160000001;11.1682454
Holtålen kommune Hov skole;Holtålen;62.84242279999999;11.2909801
Høylandet barne- og ungdomsskole;Høylandet;64.625102;12.290765
Oppvekstsenter Vest skole;Inderøy;63.8637054;11.1523594
Røra skole;Inderøy;63.8603735;11.3974124
Sakshaug skole;Inderøy;63.879187;11.287588
Sandvollan skole;Inderøy;63.9497745;11.3339617
Skarnsundet montessoriskole SA;Inderøy;63.81895729999999;11.0067612
Mælan skole;Indre Fosen;63.75313;10.132458
Skaugdalen montessoriskole SA;Indre Fosen;63.6519697;10.1476325
Stadsbygd skole;Indre Fosen;63.511834;10.001422
Testmann Minne skole;Indre Fosen;63.6805398;10.6056591
Vanvikan skole;Indre Fosen;63.555811;10.221984
Åsly skole;Indre Fosen;63.586873;9.962247
Leka barne- og ungdomsskole;Leka;65.094337;11.7067
Ekne barneskole;Levanger - Levangke;63.70140419999999;11.0427757
Frol barneskole;Levanger - Levangke;63.74560630000001;11.3204698
Halsan barneskole;Levanger - Levangke;63.7242883;11.308733
Markabygda montessoriskole SA;Levanger - Levangke;63.6374448;11.2780083
Nesheim skole;Levanger - Levangke;58.517195;8.781854
Skogn barne- og ungdomsskole;Levanger - Levangke;63.69918;11.2037816
Vårtun Kristne oppvekstsenter SA;Levanger - Levangke;63.7407007;11.2516278
Ytterøy barne- og ungdomsskole;Levanger - Levangke;63.69918;11.2037816
Åsen barne- og ungdomsskole;Levanger - Levangke;63.61183089999999;11.050696
Lierne kommune - Stortangen skole;Lierne;64.46096;13.598644
Lierne kommune - Sørli skole;Lierne;64.2230369;13.8355535
Hommelvik skole;Malvik;63.4122878;10.8055642
Saksvik skole;Malvik;63.4346685;10.6022059
Sveberg skole;Malvik;63.422365;10.759203
Vikhammer skole;Malvik;63.4385187;10.6362753
Brekkåsen skole;Melhus;63.270209;10.2325328
Eid skole;Melhus;63.1695225;10.1130152
Flå skole;Melhus;63.196733;10.316501
Gimse skole;Melhus;63.286281;10.263342
Gåsbakken skole;Melhus;63.116847;9.969166
Hovin skole;Indre Østfold;59.6234244;11.0799735
Høyeggen skole;Melhus;63.2871343;10.296127
Lundamo skole;Melhus;63.1512245;10.2877632
Rosmælen skole;Melhus;63.226405;10.273746
Meråker skole;Meråker;63.413249;11.733703
Budal Oppvekstområde avd skole;Midtre Gauldal;62.88358400000001;10.4832677
Singsaas Oppvekstområde avd skole;Midtre Gauldal;62.9561801;10.7308071
Soknedal skole;Midtre Gauldal;62.955976;10.189387
Støren barneskole;Midtre Gauldal;63.0336614;10.2866913
Bangsund skole;Namsos - Nåavmesjenjaelmie;64.39210589999999;11.3975063
Bjørkly skole;Namsos - Nåavmesjenjaelmie;64.4106106;11.4747427
Høknes barneskole;Namsos - Nåavmesjenjaelmie;64.47377829999999;11.5344912
Jøa barne- og ungdomsskole;Namsos - Nåavmesjenjaelmie;64.6522528;11.265237
Namdalseid skole;Namsos - Nåavmesjenjaelmie;64.2406048;11.2085927
Namsos barneskole;Namsos - Nåavmesjenjaelmie;64.4705328;11.5145775
Otterøy oppvekstsenter avd skole;Namsos - Nåavmesjenjaelmie;64.5398738;11.2668408
Sørenget oppvekstsenter avd skole;Namsos - Nåavmesjenjaelmie;64.530239;11.5417422
Vestbyen skole;Namsos - Nåavmesjenjaelmie;64.4701259;11.4711791
Namsskogan skole;Namsskogan;64.9250685;13.161329
Austafjord skole;Nærøysund;64.91787;10.942743
Foldereid oppvekstsenter avd skole;Nærøysund;64.9611923;12.1780318
Gravvik oppvekstsenter avd skole;Nærøysund;64.98986889999999;11.7296439
Kolvereid skole;Nærøysund;64.8632685;11.597365
Nærøysundet skole;Nærøysund;64.857266;11.288739
Rørvik skole;Nærøysund;64.8711255;11.2391862
Val Skoler AS avd Vgs;Nærøysund;64.9135214;10.5378601
Aune barneskole;Oppdal;62.596561;9.683402
Drivdalen skole;Oppdal;62.534208;9.615784
Midtbygda skole;Oppdal;62.616535;9.567065
Vollan skole;Oppdal;62.575543;9.6342
Evjen skole;Orkland;63.287256;9.840898
Gjølme skole;Orkland;63.3178382;9.8063251
Grøtte skole;Orkland;63.2612401;9.8110749
Lensvik skole;Orkland;63.5057889;9.8234578
Lysheim skole;Horten;59.3832666;10.4139492
Løkken Verk montessoriskole SA;Orkland;63.12642109999999;9.7071875
Meldal barne- og ungdomsskole;Orkland;63.0424163;9.7016376
Orkanger barneskole;Orkland;63.3065903;9.851979
Aa skole;Orkland;63.399166;9.502278
Årlivoll skole;Orkland;63.171584;9.744006
Strand barne- og ungdomsskole;Osen;64.322437;10.456993
Hunn skole;Overhalla;64.462423;11.765572
Overhalla barne- og ungdomsskole;Overhalla;64.497881;11.962529
Overhalla montessoriskole SA;Overhalla;64.4644227;12.0544589
Rennebu barne- og ungdomsskole;Rennebu;62.8295953;10.0064129
Voll skole AS;Rennebu;62.87648549999999;9.8377602
Rindal skole;Rindal;63.0583209;9.2115405
Brekken skole;Røros - Rosse;62.649464;11.864231
Glåmos skole;Røros - Rosse;62.67279599999999;11.4240792
Røros skole;Røros - Rosse;62.57776729999999;11.3699308
Røyrvik oppvekstsenter Avdeling skole;Raarvihke - Røyrvik;64.8840161;13.5625541
Bell skole;Selbu;63.228164;11.033625
Selbustrand skole;Selbu;63.26888;11.007719
Buvik skole;Skaun;63.3110141;10.1772213
Børsa skole;Skaun;63.325663;10.0663487
Venn oppvekstsenter avd skole;Skaun;63.2503115;10.0504839
Snåsa montessoriskole SA;Snåase - Snåsa;64.2786239;12.5272364
Snåsa skole;Snåase - Snåsa;64.246639;12.364104
Åarjel-Saemiej Skuvle;Snåase - Snåsa;64.2485067;12.3589346
Beitstad skole;Steinkjer;64.109821;11.3897057
Binde skole;Steinkjer;64.092039;11.713924
Byafossen skole;Steinkjer;64.0291596;11.5426397
Egge barneskole;Steinkjer;64.02857;11.48369
Folla skole;Steinkjer;63.986245;11.106809
Henning skole;Steinkjer;63.960155;11.611803
Kvam skole;Steinkjer;64.138733;11.733867
Lø skole;Steinkjer;63.9984638;11.4867169
Malm skole;Steinkjer;64.0694245;11.2154601
Mære skole;Steinkjer;63.9355847;11.4299124
Ogndal skole;Steinkjer;64.026821;11.66895
Steinkjer montessoriskole;Steinkjer;64.0144;11.477604
Steinkjer skole;Steinkjer;64.0116691;11.5005439
Elvran skole;Stjørdal;63.392998;11.07255
Fagerhaug International School AS;Stjørdal;63.4712526;10.9456154
Fagerhaug Kristne skole SA;Stjørdal;63.4712526;10.9456154
Forradal oppvekstsenter skole;Stjørdal;63.49635699999999;11.356232
Fosslia skole;Stjørdal;63.480968;10.941482
Halsen barneskole;Stjørdal;63.472332;10.927685
Haraldreina skole;Stjørdal;63.461935;10.975921
Hegra barneskole;Stjørdal;63.47003;11.11003
Kvislabakken skole;Stjørdal;63.482646;10.898398
Lånke skole;Stjørdal;63.441752;10.939151
Skatval skole;Stjørdal;63.5097475;10.8289858
Skjelstadmark oppvekstsenter skole;Stjørdal;63.51710039999999;11.0843112
Adventkirken skole Nidelven;Trondheim - Tråante;63.4254857;10.3905494
Berg skole;Halden;59.1246674;11.2981091
Birralee International School Trondheim AS avd skole;Trondheim - Tråante;63.42718720000001;10.3899759
Bispehaugen skole;Trondheim - Tråante;63.4317327;10.4152158
Bratsberg skole;Trondheim - Tråante;63.349667;10.480921
Breidablikk skole;Trondheim - Tråante;63.3488639;10.3612663
Brundalen skole;Trondheim - Tråante;63.417847;10.4786468
Byåsen skole;Trondheim - Tråante;63.399431;10.358369
Charlottenlund barneskole;Trondheim - Tråante;63.4264795;10.4882245
Dalgård skole og ressurssenter;Trondheim - Tråante;63.3953468;10.3421019
Eberg skole;Trondheim - Tråante;63.4185529;10.4394758
Flatåsen skole;Trondheim - Tråante;63.3761168;10.3393667
Hallset skole;Trondheim - Tråante;63.3923226;10.367412
Hansbakken skole;Trondheim - Tråante;63.4288842;10.5428569
Heimdal Friskole, Kristen grunnskole Heimdal;Trondheim - Tråante;63.36138339999999;10.3519884
Huseby barneskole - Ac Møller tegnspråksenter;Trondheim - Tråante;63.363169;10.351354
Hårstad skole;Trondheim - Tråante;63.351136;10.383558
Ila skole;Trondheim - Tråante;63.4303821;10.3717905
Kattem skole;Trondheim - Tråante;63.3452158;10.3341327
Lade skole;Trondheim - Tråante;63.4468443;10.4366242
Lilleby skole;Trondheim - Tråante;63.4406436;10.4354625
Nardo skole;Trondheim - Tråante;63.4068508;10.4168093
Nidarvoll skole;Trondheim - Tråante;63.3991575;10.4064295
Nyborg skole;Trondheim - Tråante;63.4103572;10.3526916
Nypvang skole;Trondheim - Tråante;63.331413;10.300051
Okstad skole;Trondheim - Tråante;63.3813237;10.3796786
Ranheim skole;Trondheim - Tråante;63.430032;10.522989
Romolslia skole;Trondheim - Tråante;63.3805088;10.364326
Rosten skole;Trondheim - Tråante;63.3590806;10.3803886
Rye skole;Trondheim - Tråante;63.419686;10.144875
Singsaker skole;Trondheim - Tråante;63.4232749;10.4134132
Sjetne skole;Trondheim - Tråante;63.36809;10.395213
Solbakken skole;Trondheim - Tråante;63.4029696;10.5240919
Spongdal skole;Trondheim - Tråante;63.3545798;10.1639888
Stabbursmoen skole;Trondheim - Tråante;63.3538291;10.3499481
Stavset skole;Trondheim - Tråante;63.3867863;10.3325184
Steindal skole;Trondheim - Tråante;63.401082;10.431042
Steinerskolen i Trondheim grunnskole;Trondheim - Tråante;63.430361;10.372582
Stiftelsen steinerskolen Rotvoll;Trondheim - Tråante;63.4395517;10.4855429
Stiftelsen Trondheim International School;Trondheim - Tråante;63.4290426;10.4129556
Stiftelsen Trondheim Kristne Grunnskole, tomasskolen;Trondheim - Tråante;63.4294197;10.4140159
Strindheim skole;Trondheim - Tråante;63.432415;10.455516
Sørborgen skole;Trondheim - Tråante;63.3053692;10.4615558
Tanem skole;Trondheim - Tråante;63.3071831;10.4261277
Tonstad skole;Trondheim - Tråante;63.3629661;10.3902424
Trondheim Montessori;Trondheim - Tråante;63.439327;10.483033
Utleira skole;Trondheim - Tråante;63.3892185;10.4271671
Vikåsen skole;Trondheim - Tråante;63.412619;10.53793
Åsheim barneskole;Trondheim - Tråante;63.3507381;10.3429667
Åsvang skole;Trondheim - Tråante;63.4114706;10.452474
Åsveien skole og ressurssenter;Trondheim - Tråante;63.414751;10.369812
Tydal barne- og ungdomsskole;Tydal;63.041537;11.669671
Helgådal Montessori SA;Verdal;63.82074850000001;11.9036771
Stiklestad skole;Verdal;63.803187;11.565922
Verdalsøra barneskole;Verdal;63.800392;11.485393
Vinne skole;Verdal;63.774366;11.490492
Vuku barne- og ungdomsskole;Verdal;63.775678;11.739301
Ørmelen skole;Verdal;63.791799;11.469068
Botngård barneskole;Ørland;63.764131;9.815578
Brekstad barneskole;Ørland;63.6889084;9.6613587
Fagerenget montessoriskole SA;Ørland;63.8737186;9.8853907
Opphaug skole;Ørland;63.7264741;9.6938933
Vallersund oppvekstsenter;Ørland;63.8515203;9.7456223
Brandsfjord barne- og ungdomsskole;Åfjord;64.188039;10.421431
Stokksund grunnskole og Sfo;Åfjord;64.0377007;10.0588711
Åset skole;Åfjord;63.9632751;10.2228609
Brattås skole;Færder;59.1958048;10.38974
Føynland skole;Færder;59.236384;10.446737
Labakken skole;Færder;59.2381764;10.4000978
Lindhøy skole;Færder;59.1088807;10.4020153
Oserød skole;Færder;59.1995544;10.4392546
Steinerskolen i Vestfold;Færder;59.2397727;10.3951564
Teie skole;Færder;59.252161;10.4025804
Torød skole;Færder;59.1821281;10.4404474
Botne skole;Holmestrand;59.4957927;10.2569404
Ekeberg skole;Holmestrand;59.4794293;10.3081745
Galleberg skole;Holmestrand;59.6276658;10.2153173
Hof skole;Holmestrand;59.5384492;10.0756699
Holmestrand Internasjonale montessoriskole Sti;Holmestrand;59.4899189;10.315035
Kjeldås skole;Holmestrand;59.650464;10.236676
Kleiverud skole;Holmestrand;59.5115241;10.2821046
Klokkerjordet skole;Holmestrand;59.5864884;10.2147766
Selvik skole;Holmestrand;59.5585641;10.2805014
Fagerheim skole;Horten;59.4255408;10.3725326
Granly skole;Tønsberg;59.2905416;10.4164836
Horten montessoriskole SA;Horten;59.4354094;10.4298526
Lillås skole;Horten;59.4212316;10.4611278
Lysheim skole;Horten;59.3832666;10.4139492
Nordskogen skole;Horten;59.4168608;10.453972
Sentrum skole;Horten;59.4140926;10.4787551
Åsgården skole;Horten;59.3481173;10.4551558
Berg skole;Halden;59.1246674;11.2981091
Fagerli skole;Larvik;59.0703301;10.0412548
Frøy skole;Larvik;59.0616058;10.0497878
Hedrum barneskole;Larvik;59.0874679;10.0721721
Hvarnes skole;Larvik;59.28855;9.935703
Jordet skole;Larvik;59.0173881;10.0113318
Kongshaugen Kristne grunnskole;Larvik;59.103408;10.11312
Kvelde skole;Larvik;59.1908542;9.968291
Langestrand skole;Larvik;59.049032;10.011379
Lardal skole;Larvik;59.3997571;9.9654572
Mesterfjellet skole;Larvik;59.0487291;10.0413863
Sky skole;Larvik;59.0531721;9.9851643
Stavern skole;Larvik;58.9965426;10.0333537
Tjodalyng skole;Larvik;59.0548381;10.1273996
Valby skole;Larvik;59.0449115;10.0912992
Østre Halsen skole;Larvik;59.036599;10.065591
Andebu skole;Sandefjord;59.3059262;10.1734982
Bokemoa skole;Sandefjord;59.220995;10.290115
Byskolen;Sandefjord;59.131114;10.2227377
Fevang skole;Sandefjord;59.19092;10.229804
Framnes skole;Sandefjord;59.119596;10.237046
Gokstad skole;Sandefjord;59.132103;10.252682
Haukerød skole;Sandefjord;59.146196;10.186502
Helgerød skole;Sandefjord;59.150727;10.283769
Høyjord skole;Sandefjord;59.3671462;10.1376266
Kodal skole;Sandefjord;59.2156186;10.1393431
Krokemoa skole;Sandefjord;59.133741;10.17318
Melsom skole;Sandefjord;59.2319766;10.3384103
Moe skole;Sandefjord;59.1428777;10.1981584
Mokollen skole;Sandefjord;59.145127;10.211794
Mosserød skole;Sandefjord;59.1477028;10.2089036
Ormestad skole;Sandefjord;59.1163765;10.2552477
Sande skole;Sandefjord;59.1376099;10.2279857
Skagerak International School Sti;Sandefjord;59.11993580000001;10.2311224
Store Bergan skole;Sandefjord;59.101624;10.20823
Unneberg skole;Sandefjord;59.1529882;10.2513993
Vennerød skole;Sandefjord;59.269629;10.237493
Vesterøy skole;Sandefjord;59.095096;10.261853
Virik skole;Sandefjord;59.125482;10.206827
Barkåker skole;Tønsberg;59.316475;10.392
Bjerkely skole;Tønsberg;59.3851272;10.364989
Byskogen Kombinerte skole;Tønsberg;59.2824623;10.4182461
Eik skole;Tønsberg;59.2936805;10.4252987
Elihu Kristne grunnskole;Tønsberg;59.268361;10.443658
Granly skole;Tønsberg;59.2905416;10.4164836
Husvik skole;Tønsberg;59.2573023;10.4739354
Kirkevoll skole;Bergen;60.2650217;5.3473818
Presterød skole;Tønsberg;59.2742001;10.4600487
Ramnes skole;Tønsberg;59.3553248;10.2438963
Ringshaug skole;Tønsberg;59.2847552;10.4873148
Røråstoppen skole;Tønsberg;59.3707243;10.2792563
Sandeåsen skole;Tønsberg;59.2782177;10.4491411
Sem skole;Tønsberg;59.285461;10.33206
Skagerak International School, Tønsberg AS;Tønsberg;59.2705435;10.4057618
Solerød skole;Tønsberg;59.3712932;10.364377
Træleborg skole;Tønsberg;59.2645065;10.4228133
Tønsberg Montessori skole Sti;Tønsberg;59.3317231;10.4243069
Vear skole;Tønsberg;59.2592864;10.3598661
Volden skole;Tønsberg;59.313054;10.49462
Alversund skule;Alver;60.5663411;5.2354927
Eikanger skule;Alver;60.60908;5.388927
Grasdal skule;Alver;60.5502522;5.2130291
Hordabø skule;Alver;60.7009374;4.9282366
Knarvik barneskule;Alver;60.5500257;5.2906262
Leiknes skule;Alver;60.571752;5.378869
Lindås barneskule;Alver;60.7339925;5.1639957
Manger skule;Alver;60.6414592;5.0386468
Nordhordland Kristne grunnskole;Alver;60.5647041;5.2439089
Ostereidet barneskule;Alver;60.629972;5.483499
Rossland skule;Alver;60.560905;5.053152
Sagstad skule;Alver;60.521669;5.225195
Seim skule;Alver;60.615688;5.2716207
Skodvin montessoriskule;Alver;60.6948657;5.2297831
Sæbø skule;Alver;60.619174;5.177406
Vestbygd skule;Alver;60.5287972;5.1594242
Askvoll skule;Askvoll;61.346895;5.091652
Atløy skule;Askvoll;61.326374;5.023835
Bulandet skule;Askvoll;61.28464;4.619131
Gjelsvik skule;Askvoll;61.461907;5.36552
Holmedal montessoriskule;Askvoll;61.3605705;5.1877516
Davanger skole;Askøy;60.471139;5.101429
Erdal barneskole;Askøy;60.443392;5.227534
Fauskanger barne- og ungdomsskule;Askøy;60.5244775;5.0294861
Florvåg skole;Askøy;60.419507;5.236091
Follese skole;Askøy;60.408048;5.162593
Hanøy skole;Askøy;60.447588;5.088338
Haugland skole;Askøy;60.450334;5.157928
Hetlevik skole;Askøy;60.424689;5.149266
Hop skole;Askøy;60.476189;5.214071
Kleppe skole;Askøy;60.4234868;5.2010815
Kleppestø barneskole;Askøy;60.411739;5.219916
Strusshamn skole;Askøy;60.4059786;5.1917301
Træet skule;Askøy;60.5091049;5.0790735
Tveit skole;Askøy;60.452873;5.133617
Aurland barne- og ungdomsskule;Aurland;60.9036125;7.1972214
Kolbeinsvik montessoriskule;Austevoll;60.043201;5.199342
Selbjørn skule;Austevoll;60.00518;5.19822
Storebø skule;Austevoll;60.095141;5.2238737
Kaland skule;Austrheim;60.8011;4.999752
Årås skule;Austrheim;60.7797216;4.9366158
Alvøen skole;Bergen;60.3645312;5.187516
Apeltun skole;Bergen;60.2970617;5.3417133
Aurdalslia skole;Bergen;60.3077371;5.2817336
Bergen Kristne grunnskole;Bergen;60.338955;5.320512
Bjørgvin montessoriskole;Bergen;60.34995;5.35078
Bjørndalsskogen skole;Bergen;60.3481221;5.2431481
Bønes skole;Bergen;60.332453;5.308696
Christi Krybbe Skoler;Bergen;60.3966213;5.3282817
Damsgård skole;Bergen;60.382029;5.302015
Eidsvåg skole;Bergen;60.436853;5.306215
Fjellsdalen skole;Bergen;60.3350587;5.2944897
Flaktveit skole;Bergen;60.4639794;5.3591602
Fridalen skole;Bergen;60.3637679;5.3589845
Garnes skule;Bergen;60.44197;5.4636201
Haukedalen skole;Bergen;60.4651139;5.3012684
Haukeland skole;Bergen;60.3800578;5.3611859
Haukås skole;Bergen;60.4906797;5.3846293
Hellen skole;Bergen;60.4256145;5.2979683
Hjellestad skole;Bergen;60.2575806;5.2538213
Holen skole;Bergen;60.3897144;5.2833266
Hordvik skole;Bergen;60.5199197;5.3100645
International School Of Bergen avd skole;Bergen;60.2948011;5.280665099999999
Kaland skole;Bergen;60.27956;5.406729
Kalvatræet skole;Bergen;60.445735;5.320663
Kirkevoll skole;Bergen;60.2650217;5.3473818
Kjøkkelvik skole;Bergen;60.3738648;5.2309805
Kringlebotn skole;Bergen;60.32841;5.3718516
Krohnengen skole;Bergen;60.4006155;5.3283371
Krokeide skole;Bergen;60.2327461;5.2956851
Kronstad Oppveksttun skole;Bergen;60.3755622;5.3477529
Kyrkjekrinsen skole;Bergen;60.4760506;5.3429962
Landås skole;Bergen;60.3623338;5.3702454
Li skole;Bergen;60.4645669;5.3512125
Liland skole;Bergen;60.2858581;5.2462082
Loddefjord skole;Bergen;60.363746;5.231251
Lone skule;Bergen;60.3763056;5.45561
Lyshovden Oppveksttun avd skole;Bergen;60.3478277;5.3004568
Løvås Oppveksttun - skole;Bergen;60.353598;5.291919
Mathopen skole;Bergen;60.334528;5.2108892
Midtun skole;Bergen;60.3144987;5.3578223
Minde skole;Bergen;60.3544355;5.3363718
Mjølkeråen skole;Bergen;60.4855031;5.2639743
Møhlenpris Oppveksttun avd skole;Bergen;60.3832329;5.3233647
Møllebakken skole;Bergen;60.3782656;5.3387771
Nattland skole;Bergen;60.337658;5.373347
Nordnes skole;Bergen;60.3973682;5.3078664
Ny Krohnborg skole;Bergen;60.375081;5.3339891
Nygårdslien skole;Bergen;60.3826545;5.2737298
Olsvik skole;Bergen;60.381833;5.214957
Paradis skole;Bergen;60.3385215;5.3425887
Rolland skole;Bergen;60.4633965;5.3328132
Rudolf steinerskolen i Bergen skolen;Bergen;60.34367890000001;5.3430755
Salhus skule;Bergen;60.504263;5.264062
Seljedalen skole;Bergen;60.360717;5.285271
Skeie skole;Bergen;60.286274;5.3151172
Skjold skole;Bergen;60.304901;5.3320315
Skranevatnet skole;Bergen;60.3006897;5.2848965
Slettebakken skole;Bergen;60.3556354;5.3573668
Smørås skole;Bergen;60.3018477;5.3508612
St Paul skole;Bergen;60.3887239;5.3235193
Stiftelsen Davinci montessoriskole;Bergen;60.3499461;5.350781599999999
Stiftelsen montessoriskolen i Bergen;Bergen;60.3448126;5.2833966
Stiftelsen steinerskolen på Skjold;Bergen;60.31014080000001;5.3289912
Sædalen skole;Bergen;60.349924;5.3927159
Sælen Oppveksttun avd skole;Bergen;60.34681430000001;5.2825367
Søreide skole;Bergen;60.3179533;5.2705804
Søråshøgda skole;Bergen;60.302549;5.3181206
Tertnes skole;Bergen;60.456794;5.285436
Ulsetskogen skole;Bergen;60.4608836;5.3149789
Ulsmåg skole;Bergen;60.3140022;5.3754942
Vadmyra skole;Bergen;60.3602362;5.2274927
Varden skole;Bergen;60.34038;5.27217
Ytre Arna skule;Bergen;60.461949;5.432017
Ådnamarka skule;Bergen;60.411297;5.475851
Baldersheim barneskule;Bjørnafjorden;60.145016;5.744062
Borgafjellet barneskule;Bjørnafjorden;60.2002837;5.4876303
Eikelandsosen barneskule;Bjørnafjorden;60.2471968;5.7402748
Fusa barneskule;Bjørnafjorden;60.1994504;5.6192743
Kuventræ barneskule;Bjørnafjorden;60.195707;5.4497968
Lunde barneskule;Bjørnafjorden;60.1618353;5.4406922
Lysekloster barneskule;Bjørnafjorden;60.2114775;5.3889218
Nore Neset barneskule;Bjørnafjorden;60.1782639;5.4120137
Os barneskule;Bjørnafjorden;60.1886257;5.4682052
Strandvik Vekst AS;Bjørnafjorden;60.157526;5.661754
Strøno barneskule;Bjørnafjorden;60.1737013;5.3483671
Søfteland barneskule;Bjørnafjorden;60.2368442;5.451555
Søre Øyane barneskule;Bjørnafjorden;60.147109;5.3748524
Vinnes friskule;Bjørnafjorden;60.1530802;5.5862535
Ådlandsfjorden barneskule;Bjørnafjorden;60.282435;5.656443
Davik Oppvekst avd skule;Bremanger;61.88783340000001;5.5383995
Hauge Oppvekst avd skule;Bremanger;61.84093859999999;4.9601277
Kalvåg Oppvekst Frøyen skule;Bremanger;61.76753739999999;4.8753766
Svelgen Oppvekst avd skule;Bremanger;61.76624760000001;5.286304400000001
Ålfoten oppvekstsenter avd skule;Bremanger;61.8280164;5.6635249
Gilje skule;Bømlo;59.771603;5.192172
Hillestveit skule;Bømlo;59.6006264;5.2097133
Meling skule;Bømlo;59.791666;5.141062
Moster skule;Bømlo;59.711201;5.347442
Rubbestadneset skule;Bømlo;59.814243;5.258269
Svortland skule;Bømlo;59.791656;5.18961
Våge skule;Fjaler;61.28278;5.03584
Lægreid skule;Eidfjord;60.463623;7.072878
Enge skule;Etne;59.66689;5.941024
Skånevik skule;Etne;59.731606;5.932692
Fedje skule;Fedje;60.7779467;4.7210729
Rimbareid barne- og ungdomsskule;Fitjar;59.9147336;5.3198938
Selevik skule;Fitjar;59.82246;5.324054
Dingemoen skule;Fjaler;61.3538784;5.3995634
Flekke skule;Fjaler;61.3192004;5.3579724
Våge skule;Fjaler;61.28278;5.03584
Breim skule;Gloppen;61.7323662;6.5015141
Hyen skule;Gloppen;61.7371746;5.9169731
Nordstranda skule;Gloppen;61.789093;6.192082
Sandane skule;Gloppen;61.7721043;6.219903
Brekke skule;Gulen;61.014168;5.45339
Byrknes skule;Gulen;60.901405;4.836937
Dalsøyra skule;Gulen;60.931588;5.146214
Eivindvik skule;Gulen;60.983854;5.089383
Hyllestad skule;Hyllestad;61.1699431;5.2947721
Bjordal skule;Høyanger;61.0676725;5.7998978
Høyanger skule;Høyanger;61.2217299;6.0750512
Kyrkjebø skule;Høyanger;61.164427;5.937743
Lavik skule;Høyanger;61.104911;5.515048
Brandsøy skule;Kinn;61.602035;5.132577
Eikefjord barne- og ungdomsskule;Kinn;61.589865;5.463462
Florø barneskole;Kinn;61.5987234;5.0390786
Krokane skule;Kinn;61.59745;5.064747
Raudeberg skule;Kinn;61.985904;5.134484
Skavøypoll skule;Kinn;61.918211;5.154666
Skram skule;Kinn;61.9185742;5.1732436
Torvmyrane skule;Kinn;61.599652;5.077835
Foreninga Norheimsund friskule;Kvam;60.3466143;6.1857316
Norheimsund skule;Kvam;60.3706869;6.1425758
Strandebarm skule;Kvam;60.2559095;6.0141959
Øystese skule;Kvam;60.388214;6.1999013
Ålvik skule;Kvam;60.4332697;6.4363953
Bringedalsbygda skule;Kvinnherad;59.922505;5.795911
Halsnøy skule;Kvinnherad;59.7969319;5.6786159
Hatlestrand barne- og ungdomsskule;Kvinnherad;60.058287;5.918047
Malmanger skule;Kvinnherad;59.9834606;6.0122537
Omvikdalen skule;Kvinnherad;59.9413996;5.9866264
Sunde skule;Sunnfjord;61.4287287;5.9333679
Undarheim skule;Kvinnherad;59.8536582;5.7468896
Uskedalen skule;Kvinnherad;59.9338239;5.8613172
Valen skule;Kvinnherad;59.828972;5.7868151
Ølve montessoriskule SA;Kvinnherad;60.01262909999999;5.814530599999999
Gaupne skule;Luster;61.4032598;7.2910534
Hafslo barne- og ungdomsskule;Luster;61.3137678;7.2018761
Indre Hafslo oppvekstsenter skule;Luster;61.36319359999999;7.2673639
Jostedal oppvekstsenter skule;Luster;61.603777;7.291709
Luster oppvekstsenter skule;Luster;61.44474829999999;7.460290799999999
Skjolden oppvekstsenter skule;Luster;61.4911264;7.6027819
Solvorn oppvekstsenter skule;Luster;61.3013699;7.237411
Veitastrond oppvekstsenter skule;Luster;61.4837534;7.030597999999999
Borgund skule;Lærdal;61.0814645;7.8532066
Lærdalsøyri skule;Lærdal;61.1015215;7.4939525
Matre skule;Masfjorden;60.873552;5.584373
Nordbygda skule;Masfjorden;60.830695;5.28392
Sandnes skule;Masfjorden;60.792171;5.296686
Mo skule;Modalen;60.8174504;5.8095532
Fotlandsvåg skule;Osterøy;60.588326;5.5244
Haus skule;Osterøy;60.455354;5.489353
Hjellvik montessoriskule;Osterøy;60.551212;5.408236
Hosanger montessoriskule Sti;Osterøy;60.57018539999999;5.4854851
Lonevåg skule;Osterøy;60.5214924;5.5100352
Valestrand skule;Osterøy;60.5058989;5.4366498
Samnanger barneskule;Samnanger;60.395182;5.767057
Fjærland oppvekstsenter avd skule;Sogndal;61.39809580000001;6.7388017
Kaupanger skule;Sogndal;61.188162;7.224538
Leikanger barneskule;Sogndal;61.1921915;6.8540395
Norane skule;Sogndal;61.180946;7.015672
Sagatun skule avd skule;Sogndal;61.2057102;6.525644
Trudvang skule;Sogndal;61.2325362;7.0996655
Solund skule;Solund;61.0752123;4.8400659
Bryggja skule AS;Stad;61.94245840000001;5.4515549
Flatraket skule;Stad;61.9748517;5.2245734
Haugen skule;Stad;61.9247606;5.883831
Hjelle skule;Stad;61.918745;6.079254
Kjølsdalen montessoriskule SA;Stad;61.91747089999999;5.6257209
Nordfjordeid skule;Stad;61.911568;5.9935528
Selje skule;Stad;62.042713;5.350402
Stadlandet skule;Stad;62.111885;5.332945
Stårheim skule;Stad;61.9192375;5.7628774
Hystad skule;Stord;59.7974322;5.5132854
Langeland skule;Stord;59.768022;5.47407
Leirvik skule;Stord;59.7784094;5.4940417
Rommetveit skule;Stord;59.8164556;5.5230189
Sagvåg skule;Stord;59.7808635;5.3799135
Stord Kristne skule AS;Stord;59.7787658;5.484934700000001
Tjødnalio skule;Stord;59.770477;5.412
Loen skule;Stryn;61.8677952;6.8463498
Nordsida skule;Stryn;61.854046;6.524772
Olden skule;Stryn;61.8338423;6.8084517
Oppstryn skule;Stryn;61.9158155;7.1103851
Tonning skule;Stryn;61.9053045;6.7176431
Vikane skule;Stryn;61.850811;6.617213
Bygstad skule;Sunnfjord;61.37994;5.671383
Flatene skule;Sunnfjord;61.4487503;5.8375177
Førde barneskule;Sunnfjord;61.454744;5.8627033
Holsen skule og barnehage avd skule;Sunnfjord;61.41834299999999;6.157249999999999
Naustdal skule;Sunnfjord;61.512436;5.7151693
Sande skule;Sunnfjord;61.325499;5.798629
Skei skule;Sunnfjord;61.578304;6.48906
Slåtten skule;Sunnfjord;61.463345;5.894072
Sunde skule;Sunnfjord;61.4287287;5.9333679
Vassenden skule;Sunnfjord;61.4904407;6.1190922
Viksdalen skule;Sunnfjord;61.353341;6.117325
Auklandshamn skule;Sveio;59.63804;5.386294
Førde skule;Sveio;59.609879;5.472384
Sveio skule;Sveio;59.543927;5.3583
Valestrand oppvekstsenter avd skule;Sveio;59.70268929999999;5.485767099999999
Vikse skule;Sveio;59.499258;5.300948
Onarheim skule;Tysnes;59.949114;5.629531
Tysnes skule;Tysnes;60.040914;5.537552
Hauso barne- og ungdomsskule;Ullensvang;60.374927;6.641993
Jondal skule;Ullensvang;60.2788164;6.2542504
Kinsarvik skule;Ullensvang;60.3735825;6.7196131
Odda barneskole;Ullensvang;60.0685862;6.5426192
Opedal skule;Ullensvang;60.3292768;6.6581552
Røldal skule;Ullensvang;59.832098;6.813295
Skare barneskule;Ullensvang;59.930689;6.5967858
Tyssedal barneskole;Ullensvang;60.117812;6.559375
Vikebygd skule;Ullensvang;60.2595989;6.5729656
Brakanes barne- og ungdomsskule;Ulvik;60.5681252;6.9108709
Dale skule;Vaksdal;60.5913709;5.8192078
Eksingedalen skule;Vaksdal;60.789463;6.114091
Stamnes skule;Vaksdal;60.6648226;5.7723037
Stanghelle skule;Vaksdal;60.553416;5.7467792
Vaksdal skule;Vaksdal;60.475627;5.740248
Feios skule;Vik;61.149316;6.765864
Flatbygdi skule;Vik;61.08131;6.579037
Fresvik Enspire skule AS;Vik;61.0662079;6.931176199999999
Bjørgum skule;Voss;60.6164692;6.537184
Bulken skule;Voss;60.628014;6.316238
Evanger skule;Voss;60.647468;6.116103
Gjernes skule;Voss;60.6150851;6.4202989
Granvin barne- og ungdomsskule;Voss;60.52749;6.722395
Gullfjordungen skule;Voss;60.6277044;6.3941663
Palmafossen skule;Voss;60.6364215;6.4696808
Skulestad skule;Voss;60.65867;6.436026
Vangen skule;Voss;60.6281626;6.4236835
Vossestrand barne- og ungdomsskule;Voss;60.781125;6.4860317
Bjorøy skule;Øygarden;60.3169205;5.1718169
Brattholmen skule;Øygarden;60.3513814;5.1568134
Danielsen barne- og ungdomsskule Sotra;Øygarden;60.352706;5.134551
Foldnes skule;Øygarden;60.3671935;5.1174401
Hjelteryggen skule;Øygarden;60.3837297;5.1533484
Knappskog skule;Øygarden;60.3766142;5.0526845
Kolltveit skule;Øygarden;60.3516948;5.095373
Landro skule;Øygarden;60.4178956;4.970759
Rong skule;Øygarden;60.5112044;4.9018164
Skogsvåg skule;Øygarden;60.2603335;5.0923951
Spildepollen skule;Øygarden;60.239266;5.039068
Stranda skule;Øygarden;60.197457;5.101234
Tjeldstø skule;Øygarden;60.592793;4.843034
Toftøy skule;Øygarden;60.4805345;4.9460411
Ulveset skule;Øygarden;60.3278162;5.0366888
Ågotnes skule;Øygarden;60.4069853;4.9954321
Farnes skule;Årdal;61.3095059;7.801275
Tangen skule;Årdal;61.2431605;7.7127405
Aremark skole;Aremark;59.22587;11.6987897
Ambjørnrød skole;Fredrikstad;59.2469351;10.9208601
Begby barne- og ungdomsskole;Fredrikstad;59.2158526;11.0101875
Borge skole;Fredrikstad;59.224678;11.045441
Childrens International School Fredrikstad AS;Fredrikstad;59.2072675;10.9646607
Cicignon skole;Fredrikstad;59.2074881;10.952143
Gudeberg barne- og ungdomsskole;Fredrikstad;59.2051783;10.9620669
Hauge skole;Fredrikstad;59.2534335;10.9880905
Hurrød skole;Fredrikstad;59.2258557;10.9014422
Kjølberg skole;Fredrikstad;59.22822;11.0009633
Lunde barneskole;Fredrikstad;59.1616573;10.9330632
Manstad skole;Fredrikstad;59.2683318;10.769481
Nylende skole;Fredrikstad;59.303415;10.9749878
Nøkleby skole;Fredrikstad;59.23149;10.968183
Rekustad skole;Fredrikstad;59.2661442;10.9921675
Rød skole Kråkerøy;Fredrikstad;59.1949709;10.9098701
Rød skole Onsøy;Fredrikstad;59.2073649;10.8845998
Rødsmyra skole;Fredrikstad;59.1993756;10.9272542
Råkollen skole avd Råkollen;Fredrikstad;59.2144901;10.9734817
Sagabakken skole;Fredrikstad;59.2182304;10.9843249
Slevik skole;Fredrikstad;59.200212;10.83359
Steinerskolen i Fredrikstad;Fredrikstad;59.2664481;10.9976719
Torp skole;Fredrikstad;59.2452873;11.0239894
Torsnes skole;Fredrikstad;59.18611;11.049612
Trara skole;Fredrikstad;59.2191714;10.9391109
Trosvik skole;Fredrikstad;59.2250992;10.9261056
Årum skole;Fredrikstad;59.261623;11.091202
Berg skole;Halden;59.1246674;11.2981091
Gimle skole;Halden;59.1379043;11.4093539
Halden montessoriskole AS;Halden;59.1181095;11.396638
Hjortsberg skole;Halden;59.1409368;11.383616
Kongeveien skole;Halden;59.113484;11.408196
Låby skole;Halden;59.130458;11.3652475
Os skole;Rakkestad;59.440117;11.311685
Tistedal skole;Halden;59.1319696;11.4542189
Hvaler barne- og ungdomsskole;Hvaler;59.0706735;10.9431632
Askimbyen skole;Indre Østfold;59.5846527;11.156015
Båstad skole;Indre Østfold;59.6910025;11.295451
Grøtvedt skole;Indre Østfold;59.5891182;11.1790057
Havnås oppvekstsenter avd skole;Indre Østfold;59.6173002;11.4110344
Hovin skole;Indre Østfold;59.6234244;11.0799735
Hærland skole;Indre Østfold;59.5502413;11.4239798
Kirkefjerdingen skole;Indre Østfold;59.5239462;11.2660029
Knapstad barne- og ungdomsskole;Indre Østfold;59.624726;11.02448
Korsgård skole;Indre Østfold;59.5887433;11.1973437
Moen skole;Indre Østfold;59.5689005;11.1657022
Mysen skole;Indre Østfold;59.5557022;11.3376172
Ringvoll skole;Indre Østfold;59.5562462;10.8447214
Rom skole;Indre Østfold;59.5900472;11.1295431
Skjønhaug skole;Indre Østfold;59.63789;11.323199
Spydeberg skole;Indre Østfold;59.59611;11.068364
Stiftelsen steinerskolen i Indre Østfold;Indre Østfold;59.58636889999999;11.1242289
Tenor skole;Indre Østfold;59.5781615;11.2587335
Tomter skole;Indre Østfold;59.658264;11.00346
Trømborg skole;Indre Østfold;59.507023;11.363131
Marker kommune - Marker skole;Marker;59.47818359999999;11.6577836
Buen barne- og ungdomsskole;Moss;59.41864;10.68474
Bytårnet skole;Moss;59.4324636;10.6683428
Children's International School Moss AS;Moss;59.43999299999999;10.669487
Ekholt skole;Moss;59.4107683;10.6793996
Halmstad skole;Moss;59.3804625;10.7454294
Krapfoss skole;Moss;59.4332052;10.6819278
Larkollen skole;Moss;59.3327879;10.6721817
Melløs skole;Moss;59.422018;10.6680665
Nøkkeland skole;Moss;59.4690671;10.6927398
Ramberg skole;Moss;59.4419108;10.6286131
Refsnes skole;Moss;59.4398796;10.6185434
Reier skole;Moss;59.4296667;10.6296697
Steinerskolen i Moss Grunnskole/Adm;Moss;59.4340914;10.6583833
Torderød skole Adventistkirkens grunnskole;Moss;59.4348131;10.6391264
Vang skole og ressurssenter;Moss;59.3828254;10.6896823
Verket skole;Moss;59.4443577;10.678576
Øreåsen skole;Moss;59.419936;10.6898839
Åvangen skole;Moss;59.4588928;10.6967499
Bergenhus skole;Rakkestad;59.420057;11.347595
Kirkeng skole;Rakkestad;59.357136;11.420453
Os skole;Rakkestad;59.440117;11.311685
Råde kommune Karlshus skole;Råde;59.34763299999999;10.868676
Råde kommune Spetalen skole;Råde;59.2975447;10.7680439
Alvimhaugen barneskole;Sarpsborg;59.271519;11.08821
Borgen barneskole;Sarpsborg;59.2642693;11.1685206
Childrens International School Sarpsborg AS;Sarpsborg;59.29207650000001;11.0952356
Grålum barneskole;Sarpsborg;59.290898;11.057991
Hafslund barneskole;Sarpsborg;59.2716883;11.1432606
Hafslundsøy barneskole;Sarpsborg;59.2854185;11.1465887
